city,country,iso2,lat,lng
tokyo,japan,JP,35.687,139.7495
jakarta,indonesia,ID,-6.175,106.8275
delhi,india,IN,28.61,77.23
guangzhou,china,CN,23.13,113.26
mumbai,india,IN,19.0761,72.8775
manila,philippines,PH,14.5958,120.9772
shanghai,china,CN,31.2286,121.4747
são paulo,brazil,BR,-23.5504,-46.6339
seoul,"korea, south",KR,37.5667,126.9833
mexico city,mexico,MX,19.4333,-99.1333
kolkāta,india,IN,22.5675,88.37
cairo,egypt,EG,30.0444,31.2358
karachi,pakistan,PK,24.86,67.01
dhaka,bangladesh,BD,23.7289,90.3944
new york,united states,US,40.6943,-73.9249
beijing,china,CN,39.9067,116.3975
bangkok,thailand,TH,13.7525,100.4942
shenzhen,china,CN,22.5415,114.0596
moscow,russia,RU,55.7506,37.6175
buenos aires,argentina,AR,-34.6036,-58.3814
lagos,nigeria,NG,6.455,3.3841
bangalore,india,IN,12.9789,77.5917
ho chi minh city,vietnam,VN,10.7756,106.7019
ōsaka,japan,JP,34.6939,135.5022
chengdu,china,CN,30.66,104.0633
istanbul,turkey,TR,41.0136,28.955
tehran,iran,IR,35.6889,51.3897
kinshasa,congo (kinshasa),CD,-4.3219,15.3119
rio de janeiro,brazil,BR,-22.9111,-43.2056
chennai,india,IN,13.0825,80.275
xi’an,china,CN,34.2611,108.9422
lahore,pakistan,PK,31.5497,74.3436
chongqing,china,CN,29.5637,106.5504
los angeles,united states,US,34.1141,-118.4068
london,united kingdom,GB,51.5072,-0.1275
paris,france,FR,48.8567,2.3522
linyi,china,CN,35.1038,118.3564
dongguan,china,CN,23.021,113.752
baoding,china,CN,38.874,115.464
hyderābād,india,IN,17.3617,78.4747
tianjin,china,CN,39.1336,117.2054
lima,peru,PE,-12.06,-77.0375
wuhan,china,CN,30.5934,114.3046
nanyang,china,CN,32.9902,112.5285
hangzhou,china,CN,30.267,120.153
nagoya,japan,JP,35.1833,136.9
luanda,angola,AO,-8.8383,13.2344
foshan,china,CN,23.0214,113.1216
kuala lumpur,malaysia,MY,3.1686,101.698
zhoukou,china,CN,33.6367,114.7014
tongshan,china,CN,34.261,117.1859
hanoi,vietnam,VN,21.0,105.85
chicago,united states,US,41.8375,-87.6866
nanjing,china,CN,32.0608,118.7789
heze,china,CN,35.2343,115.4796
pune,india,IN,18.5203,73.8567
jining,china,CN,35.4151,116.5871
bogotá,colombia,CO,4.7111,-74.0722
ahmedabad,india,IN,23.0225,72.5714
shenyang,china,CN,41.8025,123.4281
dar es salaam,tanzania,TZ,-6.8161,39.2803
khartoum,sudan,SD,15.6031,32.5265
johannesburg,south africa,ZA,-26.2044,28.0456
fuyang,china,CN,32.89,115.814
hong kong,hong kong,HK,22.3,114.2
ganzhou,china,CN,25.831,114.933
shangqiu,china,CN,34.415,115.656
cangzhou,china,CN,38.3047,116.8387
riyadh,saudi arabia,SA,24.65,46.71
santiago,chile,CL,-33.4372,-70.6506
zhumadian,china,CN,33.014,114.022
zhanjiang,china,CN,21.2701,110.3575
rangoon,burma,MM,16.795,96.16
yancheng,china,CN,33.35,120.1569
bijie,china,CN,27.284,105.292
xingtai,china,CN,37.0717,114.5048
hengyang,china,CN,26.894,112.572
shaoyang,china,CN,27.2395,111.4679
surabaya,indonesia,ID,-7.2458,112.7378
sūrat,india,IN,21.205,72.84
quanzhou,china,CN,24.8744,118.6757
shangrao,china,CN,28.4551,117.9431
zunyi,china,CN,27.722,107.031
madrid,spain,ES,40.4169,-3.7033
baghdad,iraq,IQ,33.3153,44.3661
maoming,china,CN,21.6627,110.9255
miami,united states,US,25.784,-80.2101
xinyang,china,CN,32.149,114.091
houston,united states,US,29.786,-95.3885
singapore,singapore,SG,1.3,103.8
prayagraj,india,IN,25.4358,81.8464
huanggang,china,CN,30.4537,114.8724
dalian,china,CN,38.9,121.6
ankara,turkey,TR,39.93,32.85
dallas,united states,US,32.7935,-96.7667
qingdao,china,CN,36.0669,120.3827
yulin,china,CN,22.654,110.181
liaocheng,china,CN,36.4559,115.9852
douala,cameroon,CM,4.05,9.7
qujing,china,CN,25.491,103.796
nangandao,china,CN,35.3036,113.9268
addis ababa,ethiopia,ET,9.03,38.74
philadelphia,united states,US,40.0077,-75.1339
toronto,canada,CA,43.7417,-79.3733
zhengzhou,china,CN,34.764,113.684
nanchong,china,CN,30.8372,106.1106
jinan,china,CN,36.6702,117.0207
giza,egypt,EG,29.987,31.2118
saint petersburg,russia,RU,59.9375,30.3086
jieyang,china,CN,23.551,116.3727
dezhou,china,CN,37.436,116.359
nairobi,kenya,KE,-1.2864,36.8172
guadalajara,mexico,MX,20.6767,-103.3475
tai’an,china,CN,36.202,117.087
dazhou,china,CN,31.2093,107.4678
belo horizonte,brazil,BR,-19.9281,-43.9419
suzhou,china,CN,33.648,116.964
monterrey,mexico,MX,25.6844,-100.3181
yongzhou,china,CN,26.42,111.613
changde,china,CN,29.031,111.699
xiangyang,china,CN,32.01,112.122
atlanta,united states,US,33.7628,-84.422
pudong,china,CN,31.2347,121.5064
washington,united states,US,38.9047,-77.0163
zhaotong,china,CN,27.338,103.717
zhangzhou,china,CN,24.513,117.647
yueyang,china,CN,29.3647,113.1309
melbourne,australia,AU,-37.8142,144.9631
yichun,china,CN,27.816,114.417
abidjan,côte d’ivoire,CI,5.3364,-4.0267
guilin,china,CN,25.275,110.296
pingdingshan,china,CN,33.7666,113.1926
alexandria,egypt,EG,31.1975,29.8925
bozhou,china,CN,33.8463,115.7786
sydney,australia,AU,-33.8667,151.2
barcelona,spain,ES,41.3833,2.1833
yuncheng,china,CN,35.0267,111.007
cape town,south africa,ZA,-33.9253,18.4239
changsha,china,CN,28.228,112.939
suqian,china,CN,33.963,118.275
jeddah,saudi arabia,SA,21.5428,39.1728
weinan,china,CN,34.5206,109.471
berlin,germany,DE,52.52,13.405
chenzhou,china,CN,25.77,113.016
jiangmen,china,CN,22.5789,113.0815
mianyang,china,CN,31.468,104.679
jiujiang,china,CN,29.661,115.954
huaihua,china,CN,27.5698,110.0016
huanglongsi,china,CN,34.795,114.345
taizhou,china,CN,32.4567,119.9229
belāhi,india,IN,26.4,86.25
yibin,china,CN,28.752,104.643
ji’an,china,CN,27.0912,114.9668
yangzhou,china,CN,32.3944,119.4128
kunming,china,CN,25.0464,102.7094
changchun,china,CN,43.897,125.326
lu’an,china,CN,31.736,116.52
xinpu,china,CN,34.5966,119.2214
langfang,china,CN,39.5383,116.6835
boston,united states,US,42.3188,-71.0852
ürümqi,china,CN,43.8225,87.6125
suzhou,china,CN,31.3,120.6194
guigang,china,CN,23.112,109.599
shantou,china,CN,23.354,116.682
jiangguanchi,china,CN,34.037,113.852
kabul,afghanistan,AF,34.5253,69.1783
xiaoganzhan,china,CN,30.918,113.957
bamako,mali,ML,12.6458,-7.9922
kano,nigeria,NG,12.0,8.5167
luzhou,china,CN,28.871,105.442
hefei,china,CN,31.8206,117.2273
hengshui,china,CN,37.739,115.669
fortaleza,brazil,BR,-3.7275,-38.5275
anqing,china,CN,30.5318,117.1153
zhangjiakou,china,CN,40.769,114.886
zhaoqing,china,CN,23.05,112.4667
shijiazhuang,china,CN,38.0425,114.51
ningbo,china,CN,29.8603,121.6245
qiqihar,china,CN,47.3549,123.9182
phoenix,united states,US,33.5722,-112.0892
liuzhou,china,CN,24.3278,109.4278
chifeng,china,CN,42.255,118.8825
xiaoxita,china,CN,30.692,111.287
amman,jordan,JO,31.9497,35.9328
linfen,china,CN,36.088,111.519
xianyang,china,CN,34.3299,108.7088
chuzhou,china,CN,32.256,118.333
kumasi,ghana,GH,6.7,-1.625
zhuzhou,china,CN,27.829,113.133
taiyuan,china,CN,37.8704,112.5497
qingyuan,china,CN,23.682,113.056
meizhou,china,CN,24.289,116.122
yiyang,china,CN,28.5549,112.356
nanning,china,CN,22.8167,108.3275
harbin,china,CN,45.7576,126.6409
loudi,china,CN,27.6998,111.9944
abuja,nigeria,NG,9.0667,7.4833
yokohama,japan,JP,35.4442,139.6381
suihua,china,CN,46.654,126.969
binzhou,china,CN,37.383,117.971
zaozhuang,china,CN,34.8109,117.3238
detroit,united states,US,42.3834,-83.1024
xiamen,china,CN,24.4796,118.0889
mashhad,iran,IR,36.3264,59.5433
montréal,canada,CA,45.5089,-73.5617
fuzhou,china,CN,26.0743,119.2964
wuhu,china,CN,31.3526,118.4331
medan,indonesia,ID,3.5894,98.6739
yulinshi,china,CN,38.2858,109.7341
fuzhou,china,CN,27.949,116.358
wenzhou,china,CN,27.9938,120.6993
changzhou,china,CN,31.811,119.974
puyang,china,CN,35.7627,115.0292
nanchang,china,CN,28.683,115.858
baicheng,china,CN,23.903,106.619
seattle,united states,US,47.6211,-122.3244
ibadan,nigeria,NG,7.3964,3.9167
jiaozuo,china,CN,35.2157,113.2419
nādampālaiyam,india,IN,11.0125,76.9714
deyang,china,CN,31.127,104.398
busan,"korea, south",KR,35.18,129.075
hechi,china,CN,24.693,108.085
tangshan,china,CN,39.6294,118.1739
lucknow,india,IN,26.85,80.95
san francisco,united states,US,37.7558,-122.4449
boankra,ghana,GH,6.6919,-1.4051
dubai,united arab emirates,AE,25.2631,55.2972
anshan,china,CN,41.108,122.994
guozhen,china,CN,34.3609,107.1751
baojishi,china,CN,34.363,107.238
qinzhou,china,CN,21.981,108.654
guiyang,china,CN,26.647,106.63
wuxi,china,CN,31.5667,120.2833
kannankulam,india,IN,10.52,76.21
caracas,venezuela,VE,10.4806,-66.9036
kotla qasim khan,pakistan,PK,32.5833,73.75
casablanca,morocco,MA,33.5333,-7.5833
hanzhong,china,CN,33.0664,107.0232
shiyan,china,CN,32.629,110.7987
guang’an,china,CN,30.4564,106.6326
faisalabad,pakistan,PK,31.4167,73.0911
changzhi,china,CN,36.195,113.117
tongren,china,CN,27.7316,109.1895
bengbu,china,CN,32.917,117.389
leshan,china,CN,29.552,103.766
santa cruz de la sierra,bolivia,BO,-17.7892,-63.1975
neijiang,china,CN,29.5802,105.058
zhenjiang,china,CN,32.188,119.424
qinhuangdao,china,CN,39.8882,119.5202
bursa,turkey,TR,40.1833,29.05
tashkent,uzbekistan,UZ,41.3111,69.2797
guayaquil,ecuador,EC,-2.19,-79.8875
jaipur,india,IN,26.9,75.8
lanzhou,china,CN,36.0606,103.8268
ouagadougou,burkina faso,BF,12.3686,-1.5275
athens,greece,GR,37.9842,23.7281
san diego,united states,US,32.8313,-117.1222
guatemala city,guatemala,GT,14.6417,-90.5133
kuwait city,kuwait,KW,29.3697,47.9783
qincheng,china,CN,34.5815,105.7248
i̇zmir,turkey,TR,38.42,27.14
quezon city,philippines,PH,14.65,121.0475
kyiv,ukraine,UA,50.45,30.5233
kottārasshēri,india,IN,10.775,76.651
meishan,china,CN,30.0771,103.8484
incheon,"korea, south",KR,37.4833,126.6333
ningde,china,CN,26.6662,119.5477
zhongshan,china,CN,22.517,113.3925
minneapolis,united states,US,44.9635,-93.2678
tampa,united states,US,27.9945,-82.4447
putian,china,CN,25.4526,119.0078
mbuji-mayi,congo (kinshasa),CD,-6.15,23.6
tongliao,china,CN,43.654,122.243
chaoyang,china,CN,41.571,120.453
hohhot,china,CN,40.842,111.749
pyongyang,"korea, north",KP,39.0167,125.7475
shaoguan,china,CN,24.811,113.597
taichung,taiwan,TW,24.1439,120.6794
cali,colombia,CO,3.4206,-76.5222
heyuan,china,CN,23.7443,114.7002
wuzhou,china,CN,23.4767,111.279
pretoria,south africa,ZA,-25.7461,28.1881
suining,china,CN,30.533,105.593
omdurman,sudan,SD,15.6835,32.4629
weihai,china,CN,37.5133,122.1205
rizhao,china,CN,35.417,119.527
malang,indonesia,ID,-7.98,112.62
stuttgart,germany,DE,48.7775,9.18
daqing,china,CN,46.589,125.104
rome,italy,IT,41.8931,12.4828
kaohsiung,taiwan,TW,22.615,120.2975
brooklyn,united states,US,40.6501,-73.9496
xiangtan,china,CN,27.8313,112.9454
bazhou,china,CN,31.868,106.748
handan,china,CN,36.601,114.487
brisbane,australia,AU,-27.4678,153.0281
jinzhou,china,CN,41.129,121.148
denver,united states,US,39.762,-104.8758
xinzhou,china,CN,38.416,112.734
nanping,china,CN,26.6418,118.1774
gāzipura,bangladesh,BD,23.9234,90.3959
shanwei,china,CN,22.7872,115.3756
maracaibo,venezuela,VE,10.6333,-71.6333
chaozhou,china,CN,23.658,116.622
baotou,china,CN,40.6213,109.9532
longyan,china,CN,25.076,117.017
weifang,china,CN,36.708,119.162
huai’an,china,CN,33.551,119.113
zibo,china,CN,36.8138,118.055
attadappa,india,IN,11.8689,75.3555
munich,germany,DE,48.1375,11.575
gulou,china,CN,26.0865,119.298
birmingham,united kingdom,GB,52.48,-1.9025
valencia,venezuela,VE,10.1833,-68.0
damascus,syria,SY,33.502,36.2981
chattogram,bangladesh,BD,22.335,91.8325
brazzaville,congo (brazzaville),CG,-4.2667,15.2667
yangjiang,china,CN,21.857,111.983
sanaa,yemen,YE,15.3483,44.2064
barmhān kalān,india,IN,19.1972,72.9722
medellín,colombia,CO,6.2308,-75.5906
dingxi,china,CN,35.608,104.592
shaoxing,china,CN,30.0511,120.5833
yantai,china,CN,37.4646,121.4478
huizhou,china,CN,23.112,114.416
xuanzhou,china,CN,30.939,118.759
mirzāpur,india,IN,25.146,82.569
hamburg,germany,DE,53.55,10.0
taipei,taiwan,TW,25.0375,121.5625
ankang,china,CN,32.6854,109.029
zigong,china,CN,29.339,104.779
sanming,china,CN,26.2634,117.6389
toluca,mexico,MX,19.2925,-99.6569
huangshi,china,CN,30.2011,115.039
yaoundé,cameroon,CM,3.8667,11.5167
zhuhai,china,CN,22.2742,113.5719
huludao,china,CN,40.711,120.837
baoshan,china,CN,25.112,99.161
mecca,saudi arabia,SA,21.4225,39.8261
vancouver,canada,CA,49.25,-123.1
lianshan,china,CN,40.7523,120.828
beirut,lebanon,LB,33.8981,35.5058
salvador,brazil,BR,-12.9831,-38.4928
bucharest,romania,RO,44.4325,26.1039
longba,china,CN,33.3702,104.9603
nāgpur,india,IN,21.1497,79.0806
queens,united states,US,40.7498,-73.7976
tieling,china,CN,42.2237,123.726
yunfu,china,CN,22.9152,112.0445
bekasi,indonesia,ID,-6.2333,107.0
daegu,"korea, south",KR,35.8717,128.6017
ghāziābād,india,IN,28.67,77.42
luoyang,china,CN,34.6197,112.4539
luohe,china,CN,33.5804,114.0166
algiers,algeria,DZ,36.7325,3.0872
anshun,china,CN,26.2531,105.9476
huainan,china,CN,32.6314,117.0194
depok,indonesia,ID,-6.394,106.8225
konya,turkey,TR,37.8667,32.4833
haiphong,vietnam,VN,20.8651,106.6838
yanjiang,china,CN,30.129,104.627
guangyuan,china,CN,32.436,105.844
baku,azerbaijan,AZ,40.3667,49.8352
yingkou,china,CN,40.625,122.219
mudanjiang,china,CN,44.5514,129.6329
riverside,united states,US,33.9381,-117.3949
fukuoka,japan,JP,33.59,130.4017
nantong,china,CN,31.981,120.894
lincang,china,CN,23.884,100.089
las vegas,united states,US,36.2333,-115.2654
haikou,china,CN,20.0186,110.3488
yuxi,china,CN,24.347,102.527
tangerang,indonesia,ID,-6.1703,106.6403
supaul,india,IN,26.126,86.605
almaty,kazakhstan,KZ,43.24,76.915
vienna,austria,AT,48.2083,16.3725
eşfahān,iran,IR,32.6653,51.6703
xining,china,CN,36.6224,101.7804
jincheng,china,CN,35.491,112.852
baltimore,united states,US,39.3051,-76.6144
dandong,china,CN,40.1167,124.3833
yan’an,china,CN,36.65,109.494
qinbaling,china,CN,35.7091,107.6436
gaoping,china,CN,30.7824,106.1281
awka,nigeria,NG,6.2069,7.0678
taizhou,china,CN,28.6557,121.4208
ma’anshan,china,CN,31.669,118.507
jiamusi,china,CN,46.8,130.319
perth,australia,AU,-31.9558,115.8597
gaziantep,turkey,TR,37.0628,37.3792
phnom penh,cambodia,KH,11.5696,104.921
st. louis,united states,US,38.6359,-90.2451
mogadishu,somalia,SO,2.0392,45.3419
lishui,china,CN,28.468,119.923
kowloon,hong kong,HK,22.3167,114.1833
córdoba,argentina,AR,-31.4167,-64.1833
zamboanga city,philippines,PH,6.9042,122.0761
rawalpindi,pakistan,PK,33.6,73.0333
havana,cuba,CU,23.1367,-82.3589
chongzuo,china,CN,22.377,107.365
portland,united states,US,45.5371,-122.65
laibin,china,CN,23.7501,109.2212
san antonio,united states,US,29.4632,-98.5238
vadodara,india,IN,22.3,73.2
qingyang,china,CN,24.7816,118.5517
rājkot,india,IN,22.3,70.7833
shangzhou,china,CN,33.8734,109.9186
vishākhapatnam,india,IN,17.7042,83.2978
shengli,china,CN,37.434,118.6746
sanmenxia,china,CN,34.7732,111.2004
warsaw,poland,PL,52.23,21.0111
gujranwala,pakistan,PK,32.1567,74.19
hezhou,china,CN,24.4042,111.5672
aleppo,syria,SY,36.2319,37.1681
tijuana,mexico,MX,32.525,-117.0333
puning,china,CN,23.298,116.166
indore,india,IN,22.7167,75.8472
minsk,belarus,BY,53.9006,27.5586
karaj,iran,IR,35.8292,50.9675
kananga,congo (kinshasa),CD,-5.897,22.4488
huaibei,china,CN,33.956,116.798
peshawar,pakistan,PK,34.0144,71.5675
sacramento,united states,US,38.5677,-121.4685
sapporo,japan,JP,43.0619,141.3544
tilburg,netherlands,NL,51.5572,5.0911
austin,united states,US,30.3005,-97.7522
orlando,united states,US,28.4773,-81.337
davao,philippines,PH,7.07,125.6
songjiang,china,CN,31.0058,121.2333
yinchuan,china,CN,38.485,106.225
abhepur,india,IN,39.41,116.38
thāne,india,IN,19.1972,72.9722
multan,pakistan,PK,30.1978,71.4697
port harcourt,nigeria,NG,4.8242,7.0336
fushun,china,CN,41.881,123.957
tainan,taiwan,TW,22.9833,120.1833
pingliang,china,CN,35.5424,106.6649
siping,china,CN,43.1668,124.3506
san juan,puerto rico,PR,18.3985,-66.061
pingxiang,china,CN,27.659,113.887
bhopāl,india,IN,23.2599,77.4126
mosul,iraq,IQ,36.3667,43.1167
diyarbakır,turkey,TR,37.91,40.24
lubumbashi,congo (kinshasa),CD,-11.6647,27.4794
benin city,nigeria,NG,6.3333,5.6222
curitiba,brazil,BR,-25.4297,-49.2719
san jose,united states,US,37.3012,-121.848
shuyangzha,china,CN,34.1299,118.7734
adana,turkey,TR,37.0,35.3213
quito,ecuador,EC,-0.22,-78.5125
āgra,india,IN,27.18,78.02
peyanvilai,india,IN,8.9,77.9833
lusaka,zambia,ZM,-15.4167,28.2833
indianapolis,united states,US,39.7771,-86.1458
hyderabad city,pakistan,PK,25.3792,68.3683
pimpri-chinchwad,india,IN,18.6186,73.8037
maracay,venezuela,VE,10.2469,-67.5961
masqaţ,oman,OM,23.614,58.5911
montevideo,uruguay,UY,-34.9056,-56.1842
pittsburgh,united states,US,40.4397,-79.9763
cincinnati,united states,US,39.1413,-84.506
manhattan,united states,US,40.7834,-73.9662
kansas city,united states,US,39.1238,-94.5541
budapest,hungary,HU,47.4983,19.0408
patna,india,IN,25.594,85.1376
kampala,uganda,UG,0.3136,32.5811
beihai,china,CN,21.481,109.12
sanzhou,china,CN,30.82,108.4
cleveland,united states,US,41.4764,-81.6805
conakry,guinea,GN,9.5092,-13.7122
ximeicun,china,CN,24.9612,118.3849
caloocan city,philippines,PH,14.65,120.97
ecatepec,mexico,MX,19.6097,-99.06
yushan,china,CN,31.322,120.985
fuxin,china,CN,42.022,121.67
novosibirsk,russia,RU,55.05,82.95
bilāspur,india,IN,22.09,82.15
semarang,indonesia,ID,-6.99,110.4225
jingdezhen,china,CN,29.2917,117.1986
ludhiāna,india,IN,30.91,75.85
liaoyang,china,CN,41.279,123.176
jiangyin,china,CN,31.839,120.295
valencia,spain,ES,39.47,-0.3764
shuozhou,china,CN,39.3317,112.4329
león de los aldama,mexico,MX,21.1167,-101.6833
columbus,united states,US,39.9862,-82.9855
puebla,mexico,MX,19.0333,-98.1833
biên hòa,vietnam,VN,10.95,106.8167
chengtangcun,china,CN,35.0833,117.15
yopougon,côte d’ivoire,CI,5.3748,-4.0867
hebi,china,CN,35.748,114.297
shīrāz,iran,IR,29.61,52.5425
dushanbe,tajikistan,TJ,38.5367,68.78
madurai,india,IN,9.9252,78.1198
huzhou,china,CN,30.8925,120.0875
harare,zimbabwe,ZW,-17.8292,31.0522
tabrīz,iran,IR,38.0817,46.2992
jamshedpur,india,IN,22.7925,86.1842
baicheng,china,CN,45.62,122.838
san josé,costa rica,CR,9.9325,-84.08
shaoyang,china,CN,32.912,119.8526
san salvador,el salvador,SV,13.6989,-89.1914
palembang,indonesia,ID,-2.9861,104.7556
kawasaki,japan,JP,35.5167,139.7
kōbe,japan,JP,34.69,135.1956
jiaxing,china,CN,30.747,120.756
zhangjiajie,china,CN,29.117,110.479
baiyin,china,CN,36.5451,104.1389
guiping,china,CN,23.4,110.0833
changshu,china,CN,31.656,120.753
jixi,china,CN,45.295,130.969
xushan,china,CN,30.1667,121.2333
lomé,togo,TG,6.1308,1.2153
niamey,niger,NE,13.515,2.1175
gwangju,"korea, south",KR,35.1653,126.8486
recife,brazil,BR,-8.0539,-34.8808
nāsik,india,IN,19.9975,73.7898
abu dhabi,united arab emirates,AE,24.4667,54.3667
onitsha,nigeria,NG,6.1667,6.7833
amsterdam,netherlands,NL,52.3728,4.8936
vijayavāda,india,IN,16.5193,80.6305
zapopan,mexico,MX,20.7167,-103.4
daejeon,"korea, south",KR,36.35,127.385
bronx,united states,US,40.8501,-73.8662
auckland,new zealand,NZ,-36.8492,174.7653
yekaterinburg,russia,RU,56.8356,60.6128
wuwei,china,CN,37.929,102.638
jinhua,china,CN,29.079,119.647
kyōto,japan,JP,35.0117,135.7683
pizhou,china,CN,34.398,117.89
yangshe,china,CN,31.8767,120.556
dakar,senegal,SN,14.6726,-17.432
charlotte,united states,US,35.2083,-80.8303
yucheng,china,CN,30.01,103.0415
kayseri,turkey,TR,38.7225,35.4875
virginia beach,united states,US,36.7335,-76.0435
rui’an,china,CN,27.7833,120.625
muscat,oman,OM,23.6139,58.5922
kharkiv,ukraine,UA,49.9925,36.2311
pointe-noire,congo (brazzaville),CG,-4.7975,11.8503
medina,saudi arabia,SA,24.47,39.61
sangereng,indonesia,ID,-6.2889,106.7181
farīdābād,india,IN,28.4211,77.3078
sofia,bulgaria,BG,42.6979,23.3217
ulaanbaatar,mongolia,MN,47.9214,106.9055
adelaide,australia,AU,-34.9275,138.6
prague,czechia,CZ,50.0875,14.4214
wenling,china,CN,28.3667,121.3667
copenhagen,denmark,DK,55.6805,12.5615
najafgarh,india,IN,28.6125,76.9847
lianjiang,china,CN,21.7333,110.2833
helsinki,finland,FI,60.1708,24.9375
samsun,turkey,TR,41.2903,36.3336
milan,italy,IT,45.4669,9.19
antalya,turkey,TR,36.8874,30.7075
santiago,dominican republic,DO,19.4572,-70.6889
chizhou,china,CN,30.6654,117.4916
makassar,indonesia,ID,-5.1331,119.4136
porto alegre,brazil,BR,-30.0328,-51.23
huangshan,china,CN,29.7149,118.3376
gaozhou,china,CN,21.9244,110.8422
barranquilla,colombia,CO,10.9833,-74.8019
al başrah,iraq,IQ,30.515,47.81
benxi,china,CN,41.3039,123.7649
saitama,japan,JP,35.8614,139.6456
ahvāz,iran,IR,31.3047,48.6783
guarulhos,brazil,BR,-23.4667,-46.5333
leizhou,china,CN,20.9143,110.0967
juárez,mexico,MX,31.745,-106.485
mandalay,burma,MM,21.9831,96.0844
yangquan,china,CN,37.8571,113.5804
fuqing,china,CN,25.7167,119.3833
xintai,china,CN,35.909,117.768
tongling,china,CN,30.9456,117.8114
wusong,china,CN,30.945,117.811
calgary,canada,CA,51.05,-114.0667
meerut,india,IN,28.98,77.71
jacksonville,united states,US,30.3322,-81.6749
kuaidamao,china,CN,41.7283,125.9397
huazhou,china,CN,21.664,110.6396
milwaukee,united states,US,43.0642,-87.9675
wuzhong,china,CN,37.9978,106.1986
belém,brazil,BR,-1.4558,-48.5039
cacuaco,angola,AO,-8.8053,13.2444
rosario,argentina,AR,-32.9575,-60.6394
tangier,morocco,MA,35.7767,-5.8039
antananarivo,madagascar,MG,-18.91,47.525
canagatan,philippines,PH,18.0,121.8
soweto,south africa,ZA,-26.2678,27.8585
providence,united states,US,41.823,-71.4187
xiantao,china,CN,30.328,113.443
jabalpur,india,IN,23.1667,79.9333
huaiyin,china,CN,33.5819,119.028
yutan,china,CN,28.278,112.552
kazan,russia,RU,55.7964,49.1089
bagam,indonesia,ID,1.13,104.0531
dayan,china,CN,26.8552,100.2259
comayagüela,honduras,HN,14.098,-87.21
brussels,belgium,BE,50.8467,4.3525
laiwu,china,CN,36.1833,117.6667
huazhou,china,CN,32.688,112.087
sharjah,united arab emirates,AE,25.3575,55.3908
kalyān,india,IN,19.24,73.13
rucheng,china,CN,32.246,120.591
barquisimeto,venezuela,VE,10.0636,-69.3347
yongcheng,china,CN,33.9299,116.45
sumedang,indonesia,ID,-6.84,107.9208
cần thơ,vietnam,VN,10.0333,105.7833
suwon,"korea, south",KR,37.2667,127.0167
yiwu,china,CN,29.3069,120.0753
vasai-virar,india,IN,19.47,72.8
campinas,brazil,BR,-22.9009,-47.0573
dadukou,china,CN,26.5824,101.7184
lingcheng,china,CN,22.708,110.354
shuangyashan,china,CN,46.6762,131.1416
nizhniy novgorod,russia,RU,56.3269,44.0075
pānīpat,india,IN,29.3875,76.97
qom,iran,IR,34.64,50.8764
mombasa,kenya,KE,-4.05,39.6667
hargeysa,somalia,SO,9.56,44.065
baidoa,somalia,SO,3.1167,43.65
vārānasi,india,IN,25.3189,83.0128
hiroshima,japan,JP,34.3914,132.4519
chiang mai,thailand,TH,18.7953,98.9986
belgrade,serbia,RS,44.8178,20.4569
maiduguri,nigeria,NG,11.8372,13.1542
kalleli,india,IN,9.2807,76.8697
batam centre,indonesia,ID,1.1272,104.0556
pingdu,china,CN,36.7769,119.9884
rongcheng,china,CN,26.218,104.103
mbandaka,congo (kinshasa),CD,0.0478,18.2558
xinyu,china,CN,27.8186,114.9167
doha,qatar,QA,25.2867,51.5333
shymkent,kazakhstan,KZ,42.3167,69.5958
tripoli,libya,LY,32.8872,13.1914
srīnagar,india,IN,34.09,74.79
nashville,united states,US,36.1715,-86.7842
chelyabinsk,russia,RU,55.1547,61.3758
aurangābād,india,IN,19.88,75.32
cilacap,indonesia,ID,-7.7167,109.017
xinhualu,china,CN,34.3964,113.7402
salt lake city,united states,US,40.7776,-111.9311
guankou,china,CN,28.1637,113.6433
bandar lampung,indonesia,ID,-5.45,105.2667
dhanbād,india,IN,23.7998,86.4305
nay pyi taw,burma,MM,19.7475,96.115
aba,nigeria,NG,5.1167,7.3667
jingling,china,CN,30.664,113.167
zhuji,china,CN,29.7167,120.2333
tegucigalpa,honduras,HN,14.1057,-87.204
kigali,rwanda,RW,-1.9536,30.0606
samara,russia,RU,53.2028,50.1408
yingtan,china,CN,28.2721,117.0395
edmonton,canada,CA,53.5344,-113.4903
raleigh,united states,US,35.8324,-78.6429
bishkek,kyrgyzstan,KG,42.8667,74.5667
bujumbura,burundi,BI,-3.3833,29.3667
guyuan,china,CN,36.01,106.257
leiyang,china,CN,26.4223,112.8598
krasnodar,russia,RU,45.0333,38.9667
rostov,russia,RU,47.2225,39.71
maputo,mozambique,MZ,-25.9153,32.5764
bukavu,congo (kinshasa),CD,-2.5061,28.8608
amritsar,india,IN,31.64,74.86
shagamu,nigeria,NG,6.8333,3.65
alīgarh,india,IN,27.88,78.08
zhangye,china,CN,38.9248,100.4499
ufa,russia,RU,54.7261,55.9475
santo domingo,dominican republic,DO,18.4764,-69.8933
ulsan,"korea, south",KR,35.55,129.3167
rongcheng,china,CN,29.8402,112.9048
tbilisi,georgia,GE,41.7225,44.7925
guwāhāti,india,IN,26.1722,91.7458
fès,morocco,MA,34.0433,-5.0033
yingchuan,china,CN,34.142,113.489
ninh bình,vietnam,VN,20.25,105.8333
yerevan,armenia,AM,40.1814,44.5144
mwanza,tanzania,TZ,-2.5167,32.9
omsk,russia,RU,54.9833,73.3667
mexicali,mexico,MX,32.6633,-115.4678
sevilla,spain,ES,37.39,-5.99
ikare,nigeria,NG,7.5167,5.75
dingzhou,china,CN,38.516,114.99
tamale,ghana,GH,9.4075,-0.8533
yuyao,china,CN,30.05,121.15
goiânia,brazil,BR,-16.6806,-49.2564
krasnoyarsk,russia,RU,56.0089,92.8719
cologne,germany,DE,50.9364,6.9528
ubungo,tanzania,TZ,-6.7889,39.2056
yicheng,china,CN,31.36,119.815
richmond,united states,US,37.5295,-77.4756
kisangani,congo (kinshasa),CD,0.5167,25.2
ezhou,china,CN,30.3914,114.8949
astana,kazakhstan,KZ,51.1472,71.4222
zhufeng,china,CN,36.0,119.4167
nezahualcóyotl,mexico,MX,19.4081,-99.0186
nouakchott,mauritania,MR,18.0858,-15.9785
hāora,india,IN,22.58,88.3294
tongjin,"korea, south",KR,37.2333,127.2
rānchi,india,IN,23.36,85.33
ciudad nezahualcóyotl,mexico,MX,19.4006,-99.0148
gwalior,india,IN,26.2125,78.1775
ottawa,canada,CA,45.4247,-75.695
haicheng,china,CN,40.8824,122.6852
jianguang,china,CN,28.1958,115.7833
goyang,"korea, south",KR,37.65,126.8
sendai,japan,JP,38.2682,140.8694
xibeijie,china,CN,39.7334,98.4943
chandīgarh,india,IN,30.75,76.78
voronezh,russia,RU,51.6717,39.2106
managua,nicaragua,NI,12.1364,-86.2514
zhongwei,china,CN,37.5002,105.1968
jiancheng,china,CN,30.38,104.53
mersin,turkey,TR,36.8,34.6333
shouguang,china,CN,36.857,118.791
liangshi,china,CN,27.26,111.7442
são luís,brazil,BR,-2.53,-44.3028
jodhpur,india,IN,26.28,73.02
memphis,united states,US,35.1087,-89.9663
matola,mozambique,MZ,-25.9667,32.4667
ogbomoso,nigeria,NG,8.1333,4.25
sanya,china,CN,18.2533,109.5036
rangapukur,bangladesh,BD,25.5206,89.2147
ashgabat,turkmenistan,TM,37.9375,58.38
enugu,nigeria,NG,6.5,7.5
linhai,china,CN,28.85,121.1167
perm,russia,RU,58.0,56.3167
shubrā al khaymah,egypt,EG,30.1286,31.2422
monrovia,liberia,LR,6.3133,-10.8014
islamabad,pakistan,PK,33.6931,73.0639
xinyi,china,CN,22.3549,110.9468
thủ đức,vietnam,VN,10.8266,106.7609
āqchah,afghanistan,AF,36.9114,66.1858
odesa,ukraine,UA,46.492,30.7081
raipur,india,IN,21.2444,81.6306
namangan,uzbekistan,UZ,41.0011,71.6683
changwon,"korea, south",KR,35.2708,128.6631
arequipa,peru,PE,-16.3989,-71.5369
tshikapa,congo (kinshasa),CD,-6.4167,20.8
volgograd,russia,RU,48.7086,44.5147
morelia,mexico,MX,19.7683,-101.1894
kota,india,IN,25.18,75.83
quetta,pakistan,PK,30.1833,67.0
oklahoma city,united states,US,35.4676,-97.5136
domaa-ahenkro,ghana,GH,7.2739,-2.8735
bareilly,india,IN,28.3667,79.4306
liaoyuan,china,CN,42.888,125.1447
stockholm,sweden,SE,59.3275,18.0547
bordeaux,france,FR,44.84,-0.58
taixing,china,CN,32.159,120.029
lilongwe,malawi,MW,-13.9669,33.7873
port-au-prince,haiti,HT,18.5425,-72.3386
esenyurt,turkey,TR,41.0342,28.68
pekanbaru,indonesia,ID,0.5092,101.4453
bogor,indonesia,ID,-6.5966,106.7972
ciudad guayana,venezuela,VE,8.3667,-62.65
chiba,japan,JP,35.6073,140.1064
kirkuk,iraq,IQ,35.4667,44.4
shuizhai,china,CN,33.4658,114.8753
qianxi,china,CN,27.0087,106.0323
hartford,united states,US,41.7661,-72.6834
dnipro,ukraine,UA,48.4675,35.04
baishan,china,CN,41.944,126.4147
nārāyanganj,bangladesh,BD,23.6167,90.5
gqeberha,south africa,ZA,-33.9581,25.6
huilong,china,CN,31.87,121.703
málaga,spain,ES,36.7194,-4.42
marrakech,morocco,MA,31.63,-8.0089
louisville,united states,US,38.1663,-85.6485
cebu city,philippines,PH,10.32,123.75
asmara,eritrea,ER,15.3358,38.9411
coimbatore,india,IN,11.0008,76.9633
maceió,brazil,BR,-9.6658,-35.735
nada,china,CN,19.5209,109.5808
fangchenggang,china,CN,21.6867,108.3547
solāpur,india,IN,17.68,75.92
freetown,sierra leone,SL,8.4833,-13.2331
kaiyuan,china,CN,36.0193,113.86
buffalo,united states,US,42.9018,-78.8487
santo domingo este,dominican republic,DO,18.4855,-69.8734
vientiane,laos,LA,17.98,102.63
kermānshāh,iran,IR,34.3369,47.0911
kibanseke première,congo (kinshasa),CD,-4.4419,15.395
seberang jaya,malaysia,MY,5.3909,100.4104
sale,morocco,MA,34.0333,-6.8
hubli,india,IN,15.3502,75.1376
el alto,bolivia,BO,-16.5047,-68.1633
çankaya,turkey,TR,39.9244,32.8856
hwasu-dong,"korea, south",KR,37.1997,126.8314
yingcheng,china,CN,24.21,113.401
fort worth,united states,US,32.7817,-97.3474
setagaya,japan,JP,35.6466,139.6532
keçiören,turkey,TR,40.0,32.8667
luocheng,china,CN,22.7689,111.5697
jerusalem,israel,IL,31.7789,35.2256
khartoum north,sudan,SD,15.6333,32.6333
meishan,china,CN,34.167,112.844
mushin,nigeria,NG,6.5333,3.35
trujillo,peru,PE,-8.112,-79.0288
kitakyūshū,japan,JP,33.8833,130.8833
aguascalientes,mexico,MX,21.876,-102.296
khulna,bangladesh,BD,22.8167,89.55
chihuahua,mexico,MX,28.6369,-106.0769
bridgeport,united states,US,41.1918,-73.1954
xin’an,china,CN,34.286,118.355
mysore,india,IN,12.3086,76.6531
kashgar,china,CN,39.4681,75.9938
sŏngnam,"korea, south",KR,37.4333,127.15
new orleans,united states,US,30.0687,-89.9288
trichinopoly,india,IN,10.7903,78.7047
cartagena,colombia,CO,10.4,-75.5
qingzhou,china,CN,36.6853,118.4796
naples,italy,IT,40.8358,14.2486
santiago del estero,argentina,AR,-27.7833,-64.2667
naucalpan de juárez,mexico,MX,19.4753,-99.2378
masbate,philippines,PH,12.27,123.58
owerri,nigeria,NG,5.485,7.035
taishan,china,CN,22.252,112.794
jiaozhou,china,CN,36.2647,120.0334
wuchuan,china,CN,21.441,110.779
wafangdian,china,CN,39.6271,121.9796
la plata,argentina,AR,-34.9211,-57.9544
bobo-dioulasso,burkina faso,BF,11.1833,-4.2833
ad dammām,saudi arabia,SA,26.4333,50.1
hanchuan,china,CN,30.6667,113.8333
quzhou,china,CN,28.9702,118.8593
donetsk,ukraine,UA,48.0028,37.8053
ashmūn,egypt,EG,30.2974,30.9764
bunia,congo (kinshasa),CD,1.5667,30.25
wuchang,china,CN,44.924,127.158
são gonçalo,brazil,BR,-22.8269,-43.0539
hengzhou,china,CN,22.6799,109.2614
feicheng,china,CN,36.1861,116.7719
bucaramanga,colombia,CO,7.1333,-73.0
cazenga,angola,AO,-8.8214,13.2911
mérida,mexico,MX,20.9667,-89.6167
hegang,china,CN,47.3501,130.298
osmangazi,turkey,TR,40.1983,29.06
morādābād,india,IN,28.8319,78.7764
bangui,central african republic,CF,4.3733,18.5628
abeokuta,nigeria,NG,7.1608,3.3483
cancún,mexico,MX,21.1606,-86.8475
zaoyang,china,CN,32.129,112.772
dongtai,china,CN,32.795,120.519
antipolo,philippines,PH,14.5842,121.1763
taguig city,philippines,PH,14.52,121.05
tabūk,saudi arabia,SA,28.3972,36.5789
xishan,china,CN,27.6461,113.497
zhoushan,china,CN,29.9856,122.2074
panama city,panama,PA,8.9711,-79.5347
tucson,united states,US,32.1541,-110.8787
yichun,china,CN,47.728,128.841
as sulaymānīyah,iraq,IQ,35.55,45.4333
klang,malaysia,MY,3.0223,101.5481
tiruppūr,india,IN,11.1085,77.3411
marseille,france,FR,43.2964,5.37
gurgaon,india,IN,28.456,77.029
yangchun,china,CN,22.1704,111.7916
ar ramādī,iraq,IQ,33.4258,43.2992
hai’an,china,CN,32.535,120.563
jalandhar,india,IN,31.326,75.5762
daye,china,CN,30.0961,114.9804
zhongxiang,china,CN,31.168,112.588
gaomi,china,CN,36.3833,119.75
teresina,brazil,BR,-5.0903,-42.8167
lhasa,china,CN,29.6534,91.1719
ipoh,malaysia,MY,4.6,101.065
saltillo,mexico,MX,25.4231,-100.9919
aden,yemen,YE,12.8,45.0333
el paso,united states,US,31.8476,-106.43
gongzhuling,china,CN,43.5053,124.8224
lianyuan,china,CN,27.692,111.664
ikeja,nigeria,NG,6.6,3.35
tyumen,russia,RU,57.15,65.5333
cochabamba,bolivia,BO,-17.3883,-66.1597
portsmouth,united kingdom,GB,50.8058,-1.0872
southampton,united kingdom,GB,50.9025,-1.4042
hermosillo,mexico,MX,29.0989,-110.9542
cheongju,"korea, south",KR,36.6333,127.4833
shache,china,CN,38.4261,77.25
thanh hóa,vietnam,VN,19.8075,105.7764
macheng,china,CN,31.173,115.008
akure,nigeria,NG,7.25,5.195
ilorin,nigeria,NG,8.5,4.55
erbil,iraq,IQ,36.1911,44.0094
kathmandu,nepal,NP,27.71,85.32
turin,italy,IT,45.0792,7.6761
anqiu,china,CN,36.478,119.219
yuci,china,CN,37.6823,112.7281
dehui,china,CN,44.535,125.703
pietermaritzburg,south africa,ZA,-29.6167,30.3833
durban,south africa,ZA,-29.8833,31.05
saratov,russia,RU,51.53,46.035
bhubaneshwar,india,IN,20.27,85.84
yushu,china,CN,44.826,126.55
joão pessoa,brazil,BR,-7.12,-34.88
samarinda,indonesia,ID,-0.5,117.1378
omaha,united states,US,41.2627,-96.0529
qingping,china,CN,34.539,113.391
rongjiawan,china,CN,29.15,113.1024
weichanglu,china,CN,37.1792,119.9333
sakai,japan,JP,34.5733,135.4831
eskişehir,turkey,TR,39.7767,30.5206
renqiu,china,CN,38.686,116.084
wutong,china,CN,30.6333,120.5333
barcelona,venezuela,VE,10.1403,-64.6833
wu’an,china,CN,36.697,114.204
são bernardo do campo,brazil,BR,-23.6939,-46.565
mcallen,united states,US,26.2252,-98.2467
narela,india,IN,28.85,77.1
bhayandar,india,IN,19.29,72.85
culiacán,mexico,MX,24.8069,-107.3939
n’djamena,chad,TD,12.1053,15.0447
xiashi,china,CN,30.5333,120.6833
cúcuta,colombia,CO,7.8942,-72.5039
danyang,china,CN,32.0,119.586
dongyang,china,CN,29.2667,120.2167
kraków,poland,PL,50.0614,19.9372
oran,algeria,DZ,35.6969,-0.6331
pasig city,philippines,PH,14.5605,121.0765
thessaloníki,greece,GR,40.6403,22.9356
blantyre,malawi,MW,-15.7861,35.0058
palermo,colombia,CO,2.8917,-75.4375
qamdo,china,CN,31.143,97.17
karīmnagar,india,IN,18.4386,79.1288
libreville,gabon,GA,0.3901,9.4544
hejian,china,CN,38.4466,116.0995
seyhan,turkey,TR,36.9831,35.3328
laiyang,china,CN,36.9758,120.7136
querétaro,mexico,MX,20.5875,-100.3928
wuxi,china,CN,26.58,111.841
yiyang,china,CN,26.4221,112.3999
niigata,japan,JP,37.9161,139.0364
vinh,vietnam,VN,18.6667,105.6667
puxi,china,CN,35.2125,114.735
hempstead,united states,US,40.6629,-73.6089
hamamatsu,japan,JP,34.7108,137.7275
zijinglu,china,CN,34.7667,112.9667
kumila,pakistan,PK,35.25,73.5
xingyi,china,CN,25.092,104.8955
xingcheng,china,CN,24.1347,115.73
birmingham,united states,US,33.5279,-86.7971
ailan mubage,china,CN,43.908,81.2777
lubango,angola,AO,-14.9167,13.5
frankfurt,germany,DE,50.1106,8.6822
homs,syria,SY,34.7319,36.7181
bilbao,spain,ES,43.2569,-2.9236
san luis potosí,mexico,MX,22.1511,-100.9761
bucheon,"korea, south",KR,37.5,126.7833
fuyang,china,CN,30.0553,119.95
korla,china,CN,41.7259,86.1746
khŭjand,tajikistan,TJ,40.2833,69.6333
hamhŭng,"korea, north",KP,39.9167,127.5333
erzurum,turkey,TR,39.9086,41.2769
albuquerque,united states,US,35.1054,-106.6465
zagreb,croatia,HR,45.8131,15.9772
al ‘ayn,united arab emirates,AE,24.2075,55.7447
dodoma,tanzania,TZ,-6.1731,35.7419
pikine,senegal,SN,14.744,-17.4021
patiāla,india,IN,30.34,76.38
bahawalpur,pakistan,PK,29.3956,71.6836
qingnian,china,CN,36.8494,115.7061
sanhe,china,CN,40.0167,117.0833
kaduna,nigeria,NG,10.5167,7.4333
winnipeg,canada,CA,49.8844,-97.1464
baardheere,somalia,SO,2.3447,42.2764
shīshgarh,india,IN,28.72,79.32
leping,china,CN,28.978,117.152
colombo,sri lanka,LK,6.9167,79.8333
nerima,japan,JP,35.7356,139.6517
natal,brazil,BR,-5.795,-35.2089
lichuan,china,CN,30.291,108.9364
pendik,turkey,TR,40.8747,29.235
gdańsk,poland,PL,54.3475,18.6453
licheng,china,CN,31.4306,119.4788
santo andré,brazil,BR,-23.6533,-46.528
andijon,uzbekistan,UZ,40.7833,72.3333
gaalkacyo,somalia,SO,6.7697,47.4308
ōta-ku,japan,JP,35.5614,139.7161
thiruvananthapuram,india,IN,8.5241,76.9366
nampula,mozambique,MZ,-15.1167,39.2667
zhuanghe,china,CN,39.681,122.967
kyaukse,burma,MM,21.6131,96.1303
tulsa,united states,US,36.1283,-95.9042
chengguan,china,CN,35.4623,113.8054
bağcılar,turkey,TR,41.0344,28.8564
bouaké,côte d’ivoire,CI,7.6833,-5.0331
cabinda,angola,AO,-5.56,12.19
kumamoto,japan,JP,32.8031,130.7078
kermān,iran,IR,30.2625,57.0575
lingbao chengguanzhen,china,CN,34.5176,110.8942
orūmīyeh,iran,IR,37.5439,45.0647
quebec city,canada,CA,46.8139,-71.2081
taihe,china,CN,30.871,105.388
yanggok,"korea, south",KR,37.6333,127.2167
zhongba,china,CN,31.771,104.755
osogbo,nigeria,NG,7.7667,4.5667
sizhan,china,CN,38.9846,106.3828
suohe,china,CN,34.7833,113.35
xiangxiang,china,CN,27.7186,112.5502
hamilton,canada,CA,43.2567,-79.8692
songyang,china,CN,34.4553,113.0253
cagayan de oro,philippines,PH,8.48,124.65
qian’an,china,CN,39.999,118.701
shuangqiao,china,CN,35.067,112.602
chaohucun,china,CN,31.6244,117.8902
manama,bahrain,BH,26.2233,50.5875
zouping,china,CN,36.863,117.743
charleston,united states,US,32.8168,-79.9687
uvira,congo (kinshasa),CD,-3.4,29.15
durgāpur,india,IN,23.55,87.32
an najaf,iraq,IQ,32.029,44.3396
fresno,united states,US,36.783,-119.7939
cencheng,china,CN,22.9167,111.0
umraniye,turkey,TR,41.0311,29.1081
sorocaba,brazil,BR,-23.5019,-47.4578
guli,china,CN,28.9,120.0333
sagamihara,japan,JP,35.5667,139.3667
laixi,china,CN,36.8667,120.5333
okayama,japan,JP,34.65,133.9167
concepción,chile,CL,-36.8282,-73.0514
san pedro sula,honduras,HN,15.5062,-88.0249
mississauga,canada,CA,43.6,-79.65
changsha,china,CN,22.3773,112.6982
lviv,ukraine,UA,49.8425,24.0322
shihezi,china,CN,44.3054,86.0804
valenzuela,philippines,PH,14.7,120.98
huambo,angola,AO,-12.7767,15.7347
xichang,china,CN,27.8944,102.2644
guangshui,china,CN,31.617,113.826
zaporizhzhia,ukraine,UA,47.85,35.1175
bhiwandi,india,IN,19.2967,73.0631
gaoyou,china,CN,32.845,119.508
chengxiang,china,CN,31.564,121.174
bhīlwāra,india,IN,25.35,74.63
oslo,norway,NO,59.9133,10.7389
george town,malaysia,MY,5.4136,100.3294
bristol,united kingdom,GB,51.4536,-2.5975
zunhua,china,CN,40.189,117.966
sahāranpur,india,IN,29.9639,77.5458
yenimahalle,turkey,TR,39.9719,32.8119
warangal,india,IN,17.9689,79.5941
nampo,"korea, north",KP,38.7356,125.4089
dasmariñas,philippines,PH,14.33,120.94
shiliguri,india,IN,26.71,88.43
boosaaso,somalia,SO,11.28,49.18
parachinar,pakistan,PK,33.9,70.1
latakia,syria,SY,35.54,35.78
tongchuan,china,CN,34.897,108.945
xindi,china,CN,29.827,113.476
edogawa,japan,JP,35.7,139.8833
general santos,philippines,PH,6.12,125.17
ḩamāh,syria,SY,35.1503,36.73
rochester,united states,US,43.168,-77.6162
bauchi,nigeria,NG,10.5,10.0
salem,india,IN,11.65,78.15
sinnūris,egypt,EG,29.4072,30.8667
cocody,côte d’ivoire,CI,5.3351,-4.0039
lokoja,nigeria,NG,7.8019,6.7442
guadalupe,mexico,MX,25.6775,-100.2597
selçuklu,turkey,TR,37.8814,32.4922
karbalā’,iraq,IQ,32.6167,44.0333
borvāyeh-ye al bū ‘azīz,iran,IR,31.6283,48.6147
city of parañaque,philippines,PH,14.5008,120.9915
taihecun,china,CN,45.771,131.003
mamak,turkey,TR,39.9422,32.9231
jianshe,china,CN,34.2137,113.7629
zaragoza,spain,ES,41.65,-0.8833
shishi,china,CN,24.7167,118.7
shizuoka,japan,JP,34.9756,138.3828
agege,nigeria,NG,6.6219,3.3258
mar del plata,argentina,AR,-38.0,-57.55
adachi,japan,JP,35.7833,139.8
pontianak,indonesia,ID,-0.0206,109.3414
rasht,iran,IR,37.2744,49.5889
xigazê,china,CN,29.25,88.8833
cotonou,benin,BJ,6.3667,2.4333
tasikmalaya,indonesia,ID,-7.3161,108.1975
kochi,india,IN,9.9312,76.2673
soledad,colombia,CO,10.9167,-74.75
shanhu,china,CN,29.6,120.8167
gothenburg,sweden,SE,57.7075,11.9675
acapulco de juárez,mexico,MX,16.8636,-99.8825
gorakhpur,india,IN,26.7637,83.4039
bahār,iran,IR,34.9078,48.4394
wrocław,poland,PL,51.11,17.0325
murcia,spain,ES,37.9861,-1.1303
pinghu,china,CN,30.7,121.0167
guankou,china,CN,30.988,103.647
łódź,poland,PL,51.7769,19.4547
yatou,china,CN,37.1653,122.4867
denpasar,indonesia,ID,-8.6717,115.2339
guntūr,india,IN,16.3008,80.4428
tolyatti,russia,RU,53.5089,49.4222
dayton,united states,US,39.7805,-84.2003
ch’ŏngjin,"korea, north",KP,41.7833,129.7667
zhaodong,china,CN,46.051,125.962
puyang chengguanzhen,china,CN,35.7004,114.98
bulawayo,zimbabwe,ZW,-20.17,28.58
aracaju,brazil,BR,-10.9111,-37.0717
bacoor,philippines,PH,14.4624,120.9645
rotterdam,netherlands,NL,51.92,4.48
tlaquepaque,mexico,MX,20.6167,-103.3167
villavicencio,colombia,CO,4.15,-73.6333
campo grande,brazil,BR,-20.4686,-54.6222
jingcheng,china,CN,32.009,120.263
makhachkala,russia,RU,42.9825,47.505
banjarmasin,indonesia,ID,-3.32,114.5925
kitwe,zambia,ZM,-12.8167,28.2
catia la mar,venezuela,VE,10.6,-67.0333
nneyi-umuleri,nigeria,NG,6.3333,6.8333
al hufūf,saudi arabia,SA,25.3608,49.5997
dali,china,CN,25.6811,100.3003
jalingo,nigeria,NG,8.9,11.3667
sargodha,pakistan,PK,32.0836,72.6711
karaikandi,india,IN,24.8309,92.6143
ch’ŏnan,"korea, south",KR,36.81,127.1475
brampton,canada,CA,43.6833,-79.7667
cape coral,united states,US,26.6443,-81.9957
haldwāni,india,IN,29.22,79.52
abomey-calavi,benin,BJ,6.4486,2.3556
yıldırım,turkey,TR,40.11,29.0821
dhūlia,india,IN,20.8997,74.7697
zhongshu,china,CN,27.7919,106.4013
durango,mexico,MX,24.025,-104.6675
songzi,china,CN,30.174,111.757
tondo,philippines,PH,14.617,120.967
dayrūţ,egypt,EG,27.5564,30.8106
tlalnepantla,mexico,MX,19.5367,-99.1947
xiping,china,CN,25.6005,103.8166
osasco,brazil,BR,-23.5328,-46.7919
huế,vietnam,VN,16.4619,107.5955
san jose del monte,philippines,PH,14.8139,121.0453
denizli,turkey,TR,37.7833,29.0964
maturín,venezuela,VE,9.75,-63.183
honchō,japan,JP,35.6946,139.9826
wuxue,china,CN,29.844,115.561
bhāvnagar,india,IN,21.76,72.15
jinghong,china,CN,22.009,100.797
wugang,china,CN,26.7266,110.6319
sha tin,hong kong,HK,22.3802,114.1898
provo,united states,US,40.2457,-111.6457
chisinau,moldova,MD,47.0228,28.8353
petaling jaya,malaysia,MY,3.0833,101.65
colorado springs,united states,US,38.8674,-104.7605
tallinn,estonia,EE,59.4372,24.7453
noida,india,IN,28.57,77.32
las palmas,spain,ES,28.1258,-15.4353
mission viejo,united states,US,33.6096,-117.6551
bhāngar,india,IN,22.58,88.42
allentown,united states,US,40.5961,-75.4756
benghazi,libya,LY,32.1167,20.0667
chuxiong,china,CN,25.033,101.5459
düsseldorf,germany,DE,51.2256,6.7767
palermo,italy,IT,38.1157,13.3613
baton rouge,united states,US,30.442,-91.1311
makati city,philippines,PH,14.5567,121.0214
ndola,zambia,ZM,-12.9689,28.6325
ţūkh,egypt,EG,30.3549,31.2011
glasgow,united kingdom,GB,55.8611,-4.25
bazal’tove,ukraine,UA,50.6765,26.16
al qaţīf,saudi arabia,SA,26.5196,50.0115
bhilai,india,IN,21.21,81.38
mangalore,india,IN,12.8717,74.8425
kaihua,china,CN,23.387,104.233
irkutsk,russia,RU,52.2892,104.28
ogden,united states,US,41.2279,-111.9682
meilan,china,CN,19.999,110.403
ansan,"korea, south",KR,37.3167,126.8333
barnaul,russia,RU,53.3486,83.7764
bazhou,china,CN,39.1333,116.3833
turpan,china,CN,42.9512,89.1895
jos,nigeria,NG,9.9167,8.8903
langzhong,china,CN,31.558,106.005
qufu,china,CN,35.5819,116.9862
al manşūrah,egypt,EG,31.05,31.3833
tengyue,china,CN,25.0167,98.4833
leipzig,germany,DE,51.34,12.375
ḩalwān,egypt,EG,29.8493,31.3327
tân an,vietnam,VN,10.905,106.6994
port-bouët,côte d’ivoire,CI,5.2568,-3.963
izhevsk,russia,RU,56.8333,53.1833
knoxville,united states,US,35.9692,-83.9496
jurong,china,CN,31.946,119.164
arusha,tanzania,TZ,-3.3667,36.6833
bihtā,india,IN,25.5619,84.87
yuhuan,china,CN,28.1277,121.2288
khabarovsk,russia,RU,48.4833,135.0833
etimesgut,turkey,TR,39.9458,32.6694
changping,china,CN,40.2248,116.1944
chimalhuacán,mexico,MX,19.4131,-98.9839
kandahār,afghanistan,AF,31.62,65.7158
oujda-angad,morocco,MA,34.6867,-1.9114
ruiming,china,CN,25.886,116.027
serang,indonesia,ID,-6.12,106.1503
ulyanovsk,russia,RU,54.3167,48.3667
shenzhou,china,CN,38.002,115.56
jambi,indonesia,ID,-1.59,103.61
hasanpur,india,IN,28.72,78.28
grand rapids,united states,US,42.9619,-85.6562
yukarıkaraman,turkey,TR,36.9167,30.6833
kuantan,malaysia,MY,3.83,103.32
gold coast,australia,AU,-28.0167,153.4
kawaguchi,japan,JP,35.8077,139.7241
dashiqiao,china,CN,40.6167,122.5167
las piñas city,philippines,PH,14.45,120.98
cuttack,india,IN,20.5236,85.7881
san miguel de tucumán,argentina,AR,-26.8167,-65.2167
ar rayyān,qatar,QA,25.25,51.4
riga,latvia,LV,56.9475,24.1069
columbia,united states,US,34.0378,-80.9036
salīmpur,india,IN,26.3,83.9167
malanje,angola,AO,-9.5333,16.35
kryvyi rih,ukraine,UA,47.91,33.39
djibouti,djibouti,DJ,11.5944,43.1481
zhuozhou,china,CN,39.485,115.974
tianchang,china,CN,32.6811,119.0137
albany,united states,US,42.6664,-73.7987
bacolod,philippines,PH,10.6765,122.9509
garoua,cameroon,CM,9.3,13.4
bamenda,cameroon,CM,5.9614,10.1517
bafoussam,cameroon,CM,5.4667,10.4167
haifa,israel,IL,32.8192,34.9992
raurkela,india,IN,22.2492,84.8828
tunis,tunisia,TN,36.8064,10.1817
tumkūr,india,IN,13.34,77.1
balikpapan,indonesia,ID,-1.2768,116.8277
somolu,nigeria,NG,6.5408,3.3872
şanlıurfa,turkey,TR,37.1583,38.7917
dortmund,germany,DE,51.5139,7.4653
al mukallā,yemen,YE,14.5333,49.1333
xinji,china,CN,37.943,115.218
melikgazi,turkey,TR,38.7167,35.5
kagoshima,japan,JP,31.5969,130.5572
wenchang,china,CN,31.0358,116.9367
sihui,china,CN,23.3265,112.7338
irapuato,mexico,MX,20.6667,-101.35
dublin,ireland,IE,53.3497,-6.2603
al maḩallah al kubrá,egypt,EG,30.9667,31.1667
sialkot city,pakistan,PK,32.4925,74.5311
vladivostok,russia,RU,43.115,131.8853
luocheng,china,CN,30.99,104.25
pereira,colombia,CO,4.8143,-75.6946
gaza,gaza strip,XG,31.5069,34.456
reynosa,mexico,MX,26.0922,-98.2778
zāhedān,iran,IR,29.5025,60.8558
essen,germany,DE,51.4508,7.0131
cimahi,indonesia,ID,-6.8712,107.5548
wenlan,china,CN,23.3961,103.3649
itabashi,japan,JP,35.7667,139.6833
shah alam,malaysia,MY,3.0667,101.55
suginami-ku,japan,JP,35.6994,139.6364
jaboatão dos guararapes,brazil,BR,-8.1128,-35.015
vilnius,lithuania,LT,54.6872,25.28
kingston,jamaica,JM,17.9714,-76.7931
al mafraq,jordan,JO,32.3399,36.2052
aţ ţā’if,saudi arabia,SA,21.2667,40.4167
port sudan,sudan,SD,19.6158,37.2164
nha trang,vietnam,VN,12.245,109.1917
tuxtla,mexico,MX,16.7528,-93.1167
bakersfield,united states,US,35.3529,-119.0359
dehra dūn,india,IN,30.345,78.029
bremen,germany,DE,53.0758,8.8072
fu’an,china,CN,27.1,119.6333
mymensingh,bangladesh,BD,24.7504,90.38
hachiōji,japan,JP,35.6664,139.316
iloilo,philippines,PH,10.72,122.57
puente alto,chile,CL,-33.6167,-70.5667
botou,china,CN,38.0833,116.5833
rabat,morocco,MA,34.0209,-6.8416
sincan,turkey,TR,39.9594,32.5767
kabinda,congo (kinshasa),CD,-6.13,24.48
kottayam,india,IN,9.5916,76.5222
kahramanmaraş,turkey,TR,37.5833,36.9333
shibīn al qanāţir,egypt,EG,30.3127,31.3202
tonalá,mexico,MX,20.6167,-103.2333
abū ḩummuş,egypt,EG,31.0931,30.3142
irbid,jordan,JO,32.55,35.85
jin’e,china,CN,29.3394,105.2875
macau,macau,MO,22.2006,113.5461
xinxing,china,CN,39.8667,124.15
surrey,canada,CA,49.19,-122.8489
yaroslavl,russia,RU,57.6167,39.85
qionghu,china,CN,28.945,112.598
dresden,germany,DE,51.05,13.74
xinmin,china,CN,41.997,122.823
new haven,united states,US,41.3113,-72.9246
antwerp,belgium,BE,51.2178,4.4003
kuiju,china,CN,36.8667,119.4
āsansol,india,IN,23.68,86.99
bokaro steel city,india,IN,23.67,86.15
jieshou,china,CN,33.257,115.3746
bello,colombia,CO,6.3333,-75.5667
kolhāpur,india,IN,16.6917,74.2333
wencheng,china,CN,19.617,110.7551
miluo chengguanzhen,china,CN,28.761,113.16
lanxi,china,CN,29.208,119.458
zhenzhou,china,CN,32.2723,119.1848
des moines,united states,US,41.5725,-93.6105
nava raipur,india,IN,21.161,81.787
gaizhou,china,CN,40.4,122.35
leling,china,CN,37.73,117.232
genoa,italy,IT,44.4072,8.934
ensenada,mexico,MX,31.8578,-116.6058
herāt,afghanistan,AF,34.3419,62.2031
uyo,nigeria,NG,5.0333,7.9275
hamadān,iran,IR,34.8064,48.5161
chiclayo,peru,PE,-6.763,-79.8366
surakarta,indonesia,ID,-7.5667,110.8167
ajmer,india,IN,26.4499,74.6399
braunschweig,germany,DE,52.2667,10.5167
nānded,india,IN,19.15,77.3
wuhai,china,CN,39.655,106.794
palma,spain,ES,39.5667,2.65
rustenburg,south africa,ZA,-25.6667,27.2428
amrāvati,india,IN,20.9258,77.7647
lisbon,portugal,PT,38.7122,-9.134
yanji,china,CN,42.9,129.5
the hague,netherlands,NL,52.08,4.31
hannover,germany,DE,52.3667,9.7167
sevastopol,ukraine,UA,44.605,33.5225
palm bay,united states,US,27.9631,-80.6593
manchester,united kingdom,GB,53.479,-2.2452
nellore,india,IN,14.4431,79.9861
poznań,poland,PL,52.4083,16.9336
ibagué,colombia,CO,4.4333,-75.2333
wancheng,china,CN,18.8,110.4
tomsk,russia,RU,56.5,84.9667
sungai petani,malaysia,MY,5.6497,100.4793
xinshi,china,CN,31.1333,113.1167
kemerovo,russia,RU,55.3667,86.0667
naberezhnyye chelny,russia,RU,55.6833,52.3167
valledupar,colombia,CO,10.4833,-73.25
muntinlupa city,philippines,PH,14.38,121.05
k’ebrī beyah,ethiopia,ET,9.0833,43.0833
luofeng,china,CN,37.359,120.396
ghulja,china,CN,43.9,81.35
ixtapaluca,mexico,MX,19.3186,-98.8822
fuding,china,CN,27.2,120.2
heroica matamoros,mexico,MX,25.8797,-97.5042
mbeya,tanzania,TZ,-8.9,33.45
an nāşirīyah,iraq,IQ,31.0439,46.2575
al ḩillah,iraq,IQ,32.4833,44.4333
lingyuan,china,CN,41.25,119.4
juiz de fora,brazil,BR,-21.7642,-43.3503
guixi,china,CN,28.2925,117.2454
city of calamba,philippines,PH,14.22,121.17
são josé dos campos,brazil,BR,-23.1789,-45.8869
akron,united states,US,41.0798,-81.5219
el geneina,sudan,SD,13.45,22.44
contagem,brazil,BR,-19.9319,-44.0539
santa cruz,spain,ES,28.4667,-16.25
agadir,morocco,MA,30.4214,-9.5831
orenburg,russia,RU,51.7833,55.1
nilüfer,turkey,TR,40.2833,28.95
leeds,united kingdom,GB,53.7975,-1.5436
kassala,sudan,SD,15.45,36.4
aksu,china,CN,41.185,80.2904
salta,argentina,AR,-24.7833,-65.4167
dispur,india,IN,26.1397,91.7925
gulbarga,india,IN,17.329,76.825
nansana,uganda,UG,0.3639,32.5286
kimhae,"korea, south",KR,35.2342,128.8811
novokuznetsk,russia,RU,53.7667,87.1333
beira,mozambique,MZ,-19.8333,34.85
balashikha,russia,RU,55.8167,37.9667
yazd,iran,IR,31.8822,54.3397
ardabīl,iran,IR,38.2517,48.2975
touba,senegal,SN,14.8667,-15.8833
bīkaner,india,IN,28.0167,73.3119
gaobeidian,china,CN,39.327,115.874
mixco,guatemala,GT,14.6331,-90.6064
himeji,japan,JP,34.8167,134.6833
bandar ‘abbās,iran,IR,27.1961,56.2878
nuremberg,germany,DE,49.4539,11.0775
concord,united states,US,37.9722,-122.0016
van,turkey,TR,38.4942,43.38
port said,egypt,EG,31.2625,32.3061
kōtō-ku,japan,JP,35.6667,139.8167
ciudad apodaca,mexico,MX,25.7817,-100.1886
kitchener,canada,CA,43.4186,-80.4728
agartala,india,IN,23.8314,91.2869
soacha,colombia,CO,4.5872,-74.2214
buca,turkey,TR,38.35,27.1667
maipú,chile,CL,-33.5167,-70.7667
arāk,iran,IR,34.0914,49.6933
lyon,france,FR,45.76,4.84
tultitlán de mariano escobedo,mexico,MX,19.645,-99.1694
ryazan,russia,RU,54.63,39.7425
meknès,morocco,MA,33.895,-5.5547
luanzhou,china,CN,39.741,118.704
al fayyūm,egypt,EG,29.3,30.8333
utsunomiya,japan,JP,36.555,139.8825
sheffield,united kingdom,GB,53.3808,-1.4703
chānda,india,IN,19.95,79.297
suez,egypt,EG,29.9667,32.5333
heshan,china,CN,22.7667,112.95
loni,india,IN,28.75,77.28
jiaji,china,CN,19.2431,110.4642
qaraghandy,kazakhstan,KZ,49.8028,73.1056
santa marta,colombia,CO,11.2419,-74.2053
ujjain,india,IN,23.17,75.79
abū ţisht,egypt,EG,26.1204,32.0954
samarkand,uzbekistan,UZ,39.6547,66.9758
liverpool,united kingdom,GB,53.4072,-2.9917
macapá,brazil,BR,0.033,-51.05
benguela,angola,AO,-12.55,13.4167
cuito,angola,AO,-12.3833,16.9333
al fashn,egypt,EG,28.8231,30.899
toulouse,france,FR,43.6045,1.444
al ‘amārah,iraq,IQ,31.8333,47.15
carrefour,haiti,HT,18.5333,-72.4
campos,brazil,BR,-21.7523,-41.3304
cadaado,somalia,SO,6.1393,46.6241
meihekou,china,CN,42.5407,125.7107
kenitra,morocco,MA,34.25,-6.5833
newcastle,south africa,ZA,-27.7464,29.9328
mesa,united states,US,33.4015,-111.7178
jhānsi,india,IN,25.4486,78.5696
matsuyama,japan,JP,33.8333,132.7667
ulhāsnagar,india,IN,19.22,73.15
ribeirão prêto,brazil,BR,-21.1776,-47.8101
pohang,"korea, south",KR,36.0322,129.365
duisburg,germany,DE,51.4347,6.7625
jammu,india,IN,32.73,74.87
ile-ife,nigeria,NG,7.4833,4.5592
wichita,united states,US,37.6895,-97.3443
mazatlán,mexico,MX,23.2167,-106.4167
uberlândia,brazil,BR,-18.9189,-48.2769
homyel’,belarus,BY,52.4453,30.9842
farāh,afghanistan,AF,32.3436,62.1194
belas,angola,AO,-8.9983,13.265
talatona,angola,AO,-8.9167,13.1833
nenjiang,china,CN,49.11,125.13
tuticorin,india,IN,8.8056,78.145
asaba,nigeria,NG,6.1833,6.7333
el fasher,sudan,SD,13.63,25.35
sukkur,pakistan,PK,27.7061,68.8483
k’ebrī dehar,ethiopia,ET,6.7333,44.2667
harrisburg,united states,US,40.2752,-76.8843
taozhou,china,CN,30.8956,119.411
anlu,china,CN,31.2667,113.6667
lapu-lapu city,philippines,PH,10.3127,123.9488
matsudo,japan,JP,35.7876,139.9032
johor bahru,malaysia,MY,1.482,103.7281
purnea,india,IN,25.778,87.476
imus,philippines,PH,14.4297,120.9367
niterói,brazil,BR,-22.8833,-43.1036
lipetsk,russia,RU,52.6167,39.6
cheboksary,russia,RU,56.15,47.2333
staten island,united states,US,40.5834,-74.1496
likasi,congo (kinshasa),CD,-10.9833,26.7333
xiangyang,china,CN,34.2995,108.4905
jiangshan,china,CN,28.7361,118.625
duyun,china,CN,26.2594,107.5186
pindi bhattian,pakistan,PK,31.8958,73.2761
nyala,sudan,SD,12.05,24.8833
ichikawa,japan,JP,35.7219,139.9311
villa nueva,guatemala,GT,14.5269,-90.5875
kumul,china,CN,42.8193,93.5151
toledo,united states,US,41.6638,-83.5827
bissau,guinea-bissau,GW,11.85,-15.5667
accra,ghana,GH,5.5461,-0.2067
kota bharu,malaysia,MY,6.12,102.23
higashi-ōsaka,japan,JP,34.6794,135.6008
larkana,pakistan,PK,27.5583,68.2111
xingcheng,china,CN,40.6167,120.7333
‘ajmān,united arab emirates,AE,25.4136,55.4456
ciudad lópez mateos,mexico,MX,19.55,-99.2833
kaliningrad,russia,RU,54.7003,20.4531
yueqing,china,CN,28.12,120.96
penza,russia,RU,53.2,45.0
belgaum,india,IN,15.85,74.5
edinburgh,united kingdom,GB,55.95,-3.1833
yucheng,china,CN,36.934,116.638
brookhaven,united states,US,40.832,-72.9517
worcester,united states,US,42.2705,-71.8079
nishinomiya-hama,japan,JP,34.7376,135.3416
karamay,china,CN,45.5799,84.8892
kawachichō,japan,JP,34.6794,135.6008
zhangshu,china,CN,28.0546,115.5462
mingguang,china,CN,32.7833,117.9667
malatya,turkey,TR,38.3486,38.3194
garoowe,somalia,SO,8.4,48.4833
vellore,india,IN,12.9165,79.1325
huanghua,china,CN,38.372,117.33
encheng,china,CN,22.1833,112.3
lianran,china,CN,24.919,102.478
kartal,turkey,TR,40.8872,29.19
cuiabá,brazil,BR,-15.5958,-56.0969
akhmīm,egypt,EG,26.5667,31.75
az zarqā’,jordan,JO,32.0833,36.1
mālegaon,india,IN,20.55,74.55
feira de santana,brazil,BR,-12.2669,-38.9669
hailun,china,CN,47.4667,126.9667
valletta,malta,MT,35.8983,14.5125
kolwezi,congo (kinshasa),CD,-10.7167,25.4667
jāmnagar,india,IN,22.47,70.07
sylhet,bangladesh,BD,24.9,91.8667
ananindeua,brazil,BR,-1.3658,-48.3719
berbera,somalia,SO,10.4396,45.0143
chiniot,pakistan,PK,31.7194,72.9842
asunción,paraguay,PY,-25.2945,-57.6435
chengjiao,china,CN,35.3984,114.0649
bārdoli,india,IN,21.12,73.12
bratislava,slovakia,SK,48.1447,17.1128
kurashiki,japan,JP,34.585,133.7722
ōita,japan,JP,33.2333,131.6067
al jubayl,saudi arabia,SA,27.0046,49.646
worthing,united kingdom,GB,50.8147,-0.3714
gaya,india,IN,24.75,85.01
port st. lucie,united states,US,27.2796,-80.3884
xiulin,china,CN,29.7209,112.4254
shekhupura,pakistan,PK,31.7111,73.9878
piura,peru,PE,-5.2,-80.6333
vila velha,brazil,BR,-20.3364,-40.2936
ar ruşayfah,jordan,JO,32.0178,36.0464
kirov,russia,RU,58.6,49.6833
morogoro,tanzania,TZ,-6.8242,37.6633
san juan,argentina,AR,-31.5342,-68.5261
mykolaiv,ukraine,UA,46.975,31.995
yicheng,china,CN,31.721,112.257
fengcheng,china,CN,40.45,124.0667
mazār-e sharīf,afghanistan,AF,36.7,67.1167
xiaoyi,china,CN,36.0833,111.5167
ba‘qūbah,iraq,IQ,33.7447,44.6436
katlehong,south africa,ZA,-26.3333,28.15
tel aviv-yafo,israel,IL,32.08,34.78
jiangshandicun,china,CN,28.7412,118.6225
little rock,united states,US,34.7256,-92.3577
qingzhen,china,CN,26.5704,106.4687
buraydah,saudi arabia,SA,26.3664,43.9628
kupang,indonesia,ID,-10.1702,123.6077
tula,russia,RU,54.2,37.6167
ambattūr,india,IN,13.1143,80.1548
nakhon ratchasima,thailand,TH,14.9806,102.1
tân uyên,vietnam,VN,11.0508,106.7636
astrakhan,russia,RU,46.35,48.035
longjiang,china,CN,27.5819,120.5489
leicester,united kingdom,GB,52.6361,-1.1331
rushan,china,CN,36.87,121.505
shangzhi,china,CN,45.207,127.965
angeles city,philippines,PH,15.1472,120.5847
kuqa,china,CN,41.7156,82.9322
kanazawa,japan,JP,36.5611,136.6564
manado light,indonesia,ID,1.4858,124.8347
manado,indonesia,ID,1.4931,124.8413
kaiyuan,china,CN,42.546,124.038
cranbourne,australia,AU,-38.0996,145.2834
jalgaon,india,IN,21.004,75.568
madison,united states,US,43.0822,-89.393
chhatarpur,india,IN,24.55,79.3527
fukuyama,japan,JP,34.4858,133.3622
juba,south sudan,SS,4.83,31.58
lanús,argentina,AR,-34.7,-58.4
spokane,united states,US,47.6671,-117.433
ta‘izz,yemen,YE,13.5789,44.0219
long beach,united states,US,33.7977,-118.167
kikwit,congo (kinshasa),CD,-5.0386,18.8181
pyeongtaek,"korea, south",KR,36.9922,127.1128
kurnool,india,IN,15.83,78.05
marikina city,philippines,PH,14.65,121.1
kâğıthane,turkey,TR,41.0719,28.9664
amagasaki,japan,JP,34.7333,135.4
melaka,malaysia,MY,2.2064,102.2465
denton,united states,US,33.2175,-97.1418
ciudad general escobedo,mexico,MX,25.7933,-100.1583
reno,united states,US,39.5497,-119.8483
manizales,colombia,CO,5.0675,-75.51
bornova,turkey,TR,38.4697,27.2211
puerto la cruz,venezuela,VE,10.2,-64.6333
kahama,tanzania,TZ,-3.8375,32.6
hsinchu,taiwan,TW,24.8167,120.9833
gaoping,china,CN,35.798,112.924
batman,turkey,TR,37.887,41.132
demiryol,turkey,TR,37.887,41.132
erköklü,turkey,TR,37.887,41.132
avcılar,turkey,TR,40.9792,28.7214
kota kinabalu,malaysia,MY,5.98,116.11
katsushika-ku,japan,JP,35.7333,139.85
udaipur,india,IN,24.58,73.68
mogi das cruzes,brazil,BR,-23.5228,-46.1931
stavropol,russia,RU,45.05,41.9833
general trias,philippines,PH,14.38,120.88
warder,ethiopia,ET,6.9667,45.35
sirājganj,bangladesh,BD,24.45,89.7167
wāpi,india,IN,20.372,72.917
bắc giang,vietnam,VN,21.2667,106.2
boise,united states,US,43.6005,-116.2308
zürich,switzerland,CH,47.3744,8.5411
constantine,algeria,DZ,36.35,6.6
nam định,vietnam,VN,20.42,106.1683
eslāmshahr,iran,IR,35.5386,51.2228
rājshāhi,bangladesh,BD,24.3667,88.6
piraeus,greece,GR,37.943,23.6469
matadi,congo (kinshasa),CD,-5.8167,13.4833
zebediela,south africa,ZA,-24.31,29.27
shah latif town,pakistan,PK,24.8806,67.1625
tanbei,china,CN,35.088,112.951
londrina,brazil,BR,-23.31,-51.1628
ado-ekiti,nigeria,NG,7.6211,5.2214
bonita springs,united states,US,26.3558,-81.7859
esenler,turkey,TR,41.0339,28.8903
sochi,russia,RU,43.5853,39.7203
santiago de cuba,cuba,CU,20.0217,-75.8294
rodriguez,philippines,PH,14.72,121.12
chauddagram,bangladesh,BD,23.2244,91.3731
san nicolás de los garza,mexico,MX,25.75,-100.2833
taoyuan district,taiwan,TW,24.9913,121.3143
kissimmee,united states,US,28.3041,-81.4169
baisha,china,CN,29.4896,119.337
ndjili,congo (kinshasa),CD,-4.4089,15.3775
mathura,india,IN,27.4925,77.6736
meicheng,china,CN,30.631,116.581
lembok,indonesia,ID,-8.565,116.351
korhogo,côte d’ivoire,CI,9.4578,-5.6294
pasay city,philippines,PH,14.5439,120.995
beipiao,china,CN,41.801,120.771
jiannan,china,CN,31.3333,104.2
halifax,canada,CA,44.6475,-63.5906
fujisawa,japan,JP,35.35,139.4667
augusta,united states,US,33.3645,-82.0708
ulan-ude,russia,RU,51.8333,107.6
springfield,united states,US,42.1155,-72.5395
laval,canada,CA,45.5833,-73.75
oakland,united states,US,37.7904,-122.2166
jinchang,china,CN,38.5214,102.188
sunch’ŏn,"korea, north",KP,39.4167,125.9333
nehe,china,CN,48.4833,124.8833
kursk,russia,RU,51.7167,36.1833
sāngli,india,IN,16.853,74.583
lobito,angola,AO,-12.35,13.5464
jeju,"korea, south",KR,33.513,126.523
zhuangyuan,china,CN,37.3056,120.829
davangere,india,IN,14.4666,75.9242
jian’ou,china,CN,27.0333,118.3167
machida,japan,JP,35.5542,139.4431
winston-salem,united states,US,36.1029,-80.261
sanghar,pakistan,PK,26.0442,68.9536
chang’an,china,CN,29.4768,113.4504
al marāghah,egypt,EG,26.6998,31.6046
bandung,indonesia,ID,-6.912,107.6097
shahe,china,CN,36.8549,114.5033
calicut,india,IN,11.2588,75.7804
windhoek,namibia,,-22.57,17.0836
joinvile,brazil,BR,-26.3039,-48.8458
ismailia,egypt,EG,30.5833,32.2667
cusco,peru,PE,-13.525,-71.9722
veracruz,mexico,MX,19.1903,-96.1533
sokoto,nigeria,NG,13.0833,5.25
kashiwa,japan,JP,35.8676,139.9758
al bājūr,egypt,EG,30.4305,31.0368
yan’an beilu,china,CN,44.0144,87.2674
mothīhāri,india,IN,26.65,84.9167
aomori,japan,JP,40.8228,140.7469
tepic,mexico,MX,21.5083,-104.8931
akola,india,IN,20.7,77.0
mandaluyong city,philippines,PH,14.58,121.03
aves,portugal,PT,41.3703,-8.4101
sihŭng,"korea, south",KR,37.3799,126.8029
burco,somalia,SO,9.5221,45.5336
tver,russia,RU,56.8625,35.9242
xalapa,mexico,MX,19.54,-96.9275
buenaventura,colombia,CO,3.8772,-77.0267
london,canada,CA,42.9836,-81.2497
piracicaba,brazil,BR,-22.7252,-47.6493
tétouan,morocco,MA,35.5667,-5.3667
yogyakarta,indonesia,ID,-7.8014,110.3644
ciudad bolívar,venezuela,VE,8.1219,-63.55
skopje,north macedonia,MK,41.9961,21.4317
beining,china,CN,41.6,121.8
toyota,japan,JP,35.0824,137.1563
daloa,côte d’ivoire,CI,6.89,-6.45
uijeongbu,"korea, south",KR,37.7486,127.0389
hpa-an,burma,MM,16.8906,97.6333
laohekou,china,CN,32.359,111.684
rahimyar khan,pakistan,PK,28.42,70.3
ugep,nigeria,NG,5.8,8.0833
thái nguyên,vietnam,VN,21.6,105.85
seremban,malaysia,MY,2.7105,101.94
kayapınar,turkey,TR,37.95,40.1667
campina grande,brazil,BR,-7.2306,-35.8811
xicheng,china,CN,23.3667,103.15
kowloon city,hong kong,HK,22.3282,114.1916
santos,brazil,BR,-23.9608,-46.3339
tirana,albania,AL,41.3272,19.8186
kushtia,bangladesh,BD,23.9,89.12
el obeid,sudan,SD,13.1833,30.2167
mauá,brazil,BR,-23.6678,-46.4608
xingren,china,CN,25.435,105.1862
takamatsu,japan,JP,34.35,134.05
stockton,united states,US,37.9765,-121.3109
ajdābiyā,libya,LY,30.77,20.22
callao,peru,PE,-12.0522,-77.1392
awsīm,egypt,EG,30.1222,31.1333
shinagawa-ku,japan,JP,35.6,139.7333
paju,"korea, south",KR,37.8667,126.8
beylikdüzü,turkey,TR,41.0011,28.6419
việt trì,vietnam,VN,21.3,105.4333
santa rosa,philippines,PH,14.32,121.12
nagqu,china,CN,31.476,92.051
bettiah,india,IN,26.8014,84.5028
jhang city,pakistan,PK,31.2694,72.3161
fujin,china,CN,47.25,132.0333
altındağ,turkey,TR,39.9636,32.9033
yuanping,china,CN,38.731,112.711
talā,egypt,EG,30.6798,30.9436
ţalkhā,egypt,EG,31.0592,31.3767
boa vista,brazil,BR,2.82,-60.6719
banjul,"gambia, the",GM,13.4581,-16.5786
jayapura,indonesia,ID,-2.533,140.717
toyama,japan,JP,36.6959,137.2137
sanandaj,iran,IR,35.3114,46.9961
khon kaen,thailand,TH,16.4333,102.8333
linghai,china,CN,41.1667,121.35
shorāpur,india,IN,16.52,76.76
koumassi,côte d’ivoire,CI,5.2972,-3.9675
durham,united states,US,35.9792,-78.9022
tinnevelly,india,IN,8.7136,77.7567
pasto,colombia,CO,1.2078,-77.2772
chattanooga,united states,US,35.066,-85.2481
bellary,india,IN,15.1,76.9167
bhāgalpur,india,IN,25.25,87.0
danjiangkou,china,CN,32.5401,111.5131
kisumu,kenya,KE,-0.1,34.75
zhangjiakou shi xuanhua qu,china,CN,40.5944,115.0243
maringá,brazil,BR,-23.425,-51.9389
manampizha,india,IN,9.2972,76.65
kocasinan,turkey,TR,38.7333,35.4833
mataram,indonesia,ID,-8.5833,116.1167
magnitogorsk,russia,RU,53.3833,59.0333
greenville,united states,US,34.8354,-82.3646
zhijiang,china,CN,30.426,111.761
zaria,nigeria,NG,11.0667,7.7
lancaster,united states,US,40.042,-76.3012
fenyang,china,CN,37.2616,111.7699
syracuse,united states,US,43.0407,-76.1437
biñan,philippines,PH,14.33,121.08
gebze,turkey,TR,40.8,29.4333
shashemenē,ethiopia,ET,7.2,38.6
fangting,china,CN,31.127,104.167
shulan,china,CN,44.4059,126.9655
wanyuan,china,CN,31.9833,107.9667
jiexiu,china,CN,37.027,111.917
hat yai,thailand,TH,7.0167,100.4667
bağlar,turkey,TR,37.9167,40.1833
sham shui po,hong kong,HK,22.3307,114.1622
santa fe,argentina,AR,-31.6333,-60.7
delhi cantonment,india,IN,28.6,77.1333
cumaná,venezuela,VE,10.4564,-64.1675
fayetteville,united states,US,36.0714,-94.1661
barura,bangladesh,BD,23.3683,91.0484
kumi,"korea, south",KR,36.1195,128.3444
nagasaki,japan,JP,32.7447,129.8736
al ḩudaydah,yemen,YE,14.8022,42.9511
pencheng,china,CN,29.676,115.681
salt lake city,india,IN,22.61,88.4
qazvīn,iran,IR,36.2886,50.0069
etāwa,india,IN,24.18,78.2
sonīpat,india,IN,28.99,77.022
jundiaí,brazil,BR,-23.1864,-46.8842
pensacola,united states,US,30.4413,-87.1911
bogra,bangladesh,BD,24.851,89.3711
brno,czechia,CZ,49.1925,16.6083
öskemen,kazakhstan,KZ,49.9833,82.6167
gifu,japan,JP,35.4232,136.7608
montería,colombia,CO,8.75,-75.8833
maungdaw,burma,MM,20.8167,92.3667
igboho,nigeria,NG,8.8333,3.75
yüreğir,turkey,TR,36.9928,35.3764
pingquan,china,CN,41.0184,118.702
toyonaka,japan,JP,34.7833,135.4667
dera ghazi khan,pakistan,PK,30.0331,70.64
hatay,turkey,TR,36.2025,36.1606
luhansk,ukraine,UA,48.5678,39.3031
miyazaki,japan,JP,31.9078,131.4203
dangyang,china,CN,30.821,111.789
quilon,india,IN,8.8932,76.6141
mulangodi,india,IN,9.0,76.6167
munro turuttu,india,IN,9.0,76.6167
barinas,venezuela,VE,8.6333,-70.2
gwangju,"korea, south",KR,37.3667,127.2833
nangong,china,CN,37.359,115.409
hirakata,japan,JP,34.8167,135.65
sandakan,malaysia,MY,5.843,118.108
szczecin,poland,PL,53.4325,14.5481
surgut,russia,RU,61.25,73.4333
yongji,china,CN,34.867,110.448
arlington,united states,US,32.6998,-97.125
karūr,india,IN,10.9601,78.0766
betsiboka,madagascar,MG,-16.8667,46.95
ijebu-ode,nigeria,NG,6.8208,3.9208
al jahrā’,kuwait,KW,29.35,47.6833
tanga,tanzania,TZ,-5.0742,39.0992
diadema,brazil,BR,-23.6858,-46.6228
saurimo,angola,AO,-9.65,20.4
jālna,india,IN,19.841,75.8864
yola,nigeria,NG,9.23,12.46
zhugang,china,CN,28.1358,121.2264
hejin,china,CN,35.596,110.712
dunhua,china,CN,43.3667,128.2333
tāngāil,bangladesh,BD,24.25,89.92
khayelitsha,south africa,ZA,-34.0403,18.6778
ad dīwānīyah,iraq,IQ,31.9892,44.9247
nnewi,nigeria,NG,6.0167,6.9167
san-pédro,côte d’ivoire,CI,4.7704,-6.64
gujrat,pakistan,PK,32.5739,74.0789
huili chengguanzhen,china,CN,26.6333,102.25
yokosuka,japan,JP,35.0,16.0
aurora,united states,US,39.7083,-104.7237
asyūţ,egypt,EG,27.1869,31.1714
gwoza,nigeria,NG,11.0861,13.6914
sampaloc,philippines,PH,14.6031,121.0022
saki,nigeria,NG,8.6667,3.4
bologna,italy,IT,44.4939,11.3428
aqtöbe,kazakhstan,KZ,50.2836,57.2297
cilegon,indonesia,ID,-6.0027,106.0112
uvinza,tanzania,TZ,-5.1069,30.3839
ḩafr al bāţin,saudi arabia,SA,28.4337,45.9601
elazığ,turkey,TR,38.6744,39.2228
zanjān,iran,IR,36.6864,48.4953
bairia,india,IN,25.7583,84.1489
oyo,nigeria,NG,7.8417,3.9306
taytay,philippines,PH,14.5692,121.1325
kisenzi,congo (kinshasa),CD,-4.4094,15.3425
bhātpāra,india,IN,22.87,88.41
sintra,portugal,PT,38.7974,-9.3904
manisa,turkey,TR,38.6144,27.4292
sirūr,india,IN,18.83,74.38
tarlac city,philippines,PH,15.4869,120.59
okazaki,japan,JP,34.9543,137.1744
ceel baraf,somalia,SO,3.2072,45.7593
lingxi,china,CN,27.5036,120.3975
ilesa,nigeria,NG,7.6167,4.7167
kākināda,india,IN,16.9661,82.255
savar,bangladesh,BD,23.8482,90.2577
nuevo laredo,mexico,MX,27.4861,-99.5069
lecheng,china,CN,25.1333,113.3333
bawshar,oman,OM,23.5777,58.3998
christchurch,new zealand,NZ,-43.5311,172.6361
gusau,nigeria,NG,12.15,6.6667
hancheng,china,CN,35.4667,110.4333
zêtang,china,CN,29.238,91.771
serekunda,"gambia, the",GM,13.445,-16.675
kanifing,"gambia, the",GM,13.4475,-16.6725
canberra,australia,AU,-35.2931,149.1269
minamisuita,japan,JP,34.7594,135.5169
malabon,philippines,PH,14.66,120.96
neiva,colombia,CO,2.9345,-75.2809
hà tĩnh,vietnam,VN,18.3333,105.9
huancayo,peru,PE,-12.0667,-75.2167
celaya,mexico,MX,20.5222,-100.8122
ichinomiya,japan,JP,35.3039,136.8031
iquitos,peru,PE,-3.75,-73.25
pānihāti,india,IN,22.69,88.37
lianzhou,china,CN,24.781,112.377
cainta,philippines,PH,14.57,121.12
helixi,china,CN,30.6267,118.9861
madīnat as sādis min uktūbar,egypt,EG,29.9361,30.9269
mamou,guinea,GN,10.3833,-12.0833
scranton,united states,US,41.4044,-75.6649
itaquaquecetuba,brazil,BR,-23.4864,-46.3486
cantonment,pakistan,PK,31.5167,74.3833
rohtak,india,IN,28.8909,76.5796
māler kotla,india,IN,30.5167,75.8833
bhawana,pakistan,PK,31.5661,72.6461
oxnard,united states,US,34.1964,-119.1815
bryansk,russia,RU,53.2425,34.3667
lipa city,philippines,PH,13.9411,121.1622
butuan,philippines,PH,8.948,125.543
dikirnis,egypt,EG,31.089,31.5948
takasaki,japan,JP,36.3219,139.0033
ambon,indonesia,ID,-3.6967,128.1783
indio,united states,US,33.7346,-116.2346
malakwal,pakistan,PK,32.5531,73.2067
toyohashi,japan,JP,34.7692,137.3915
chitungwiza,zimbabwe,ZW,-17.9939,31.0481
panshi,china,CN,42.95,126.0667
az zubayr,iraq,IQ,30.3892,47.7081
bharatpur,nepal,NP,27.6833,84.4333
petare,venezuela,VE,10.4833,-66.8167
mardan,pakistan,PK,34.2012,72.0258
nagano,japan,JP,36.6486,138.1947
bauru,brazil,BR,-22.3147,-49.0606
la florida,chile,CL,-33.5333,-70.5833
nicolás romero,mexico,MX,19.5833,-99.3667
jinshan,china,CN,25.1475,101.9764
bochum,germany,DE,51.4819,7.2158
baguio city,philippines,PH,16.4119,120.5933
cibinong,indonesia,ID,-6.485,106.842
sivas,turkey,TR,39.75,37.0167
kolga,india,IN,22.35,82.68
korba,india,IN,22.3458,82.6963
qardho,somalia,SO,9.5004,49.166
rio branco,brazil,BR,-9.9781,-67.8117
tecámac,mexico,MX,19.7131,-98.9683
alanya,turkey,TR,36.55,32.0
mandaue city,philippines,PH,10.33,123.93
victorville,united states,US,34.5277,-117.3536
kocaeli,turkey,TR,40.7625,29.9175
warri,nigeria,NG,5.5167,5.75
victoria,canada,CA,48.4283,-123.3647
wŏnsan,"korea, north",KP,39.1475,127.4461
iligan,philippines,PH,8.23,124.25
anguo,china,CN,38.418,115.327
coventry,united kingdom,GB,52.4081,-1.5106
trenton,united states,US,40.2237,-74.7641
keelung,taiwan,TW,25.1333,121.7333
geita,tanzania,TZ,-2.8714,32.2294
ivanovo,russia,RU,56.9967,40.9819
cuenca,ecuador,EC,-2.8974,-79.0045
caerdydd,united kingdom,GB,51.4817,-3.1792
blumenau,brazil,BR,-26.9189,-49.0658
nanqiao,china,CN,30.9167,121.4547
hrodna,belarus,BY,53.6667,23.8333
florence,italy,IT,43.7714,11.2542
buurhakaba,somalia,SO,2.7837,44.0833
bengkulu,indonesia,ID,-3.7956,102.2592
caxias do sul,brazil,BR,-29.1678,-51.1789
malmö,sweden,SE,55.5833,13.0333
shuanghe,china,CN,30.3746,106.7903
pétion-ville,haiti,HT,18.5098,-72.2856
dengtacun,china,CN,41.4333,123.3333
huntsville,united states,US,34.6981,-86.6412
utrecht,netherlands,NL,52.0908,5.1217
palu,indonesia,ID,-0.895,119.8594
sīkar,india,IN,27.62,75.15
umuahia,nigeria,NG,5.5333,7.4833
wuppertal,germany,DE,51.2667,7.1833
palmira,colombia,CO,3.5833,-76.25
alicante,spain,ES,38.3453,-0.4831
são josé do rio prêto,brazil,BR,-20.82,-49.3789
ash shuhadā’,egypt,EG,30.5968,30.8993
ondo,nigeria,NG,7.0833,4.8333
vitsyebsk,belarus,BY,55.1917,30.2056
sasarām,india,IN,24.95,84.03
sultanbeyli,turkey,TR,40.9683,29.2617
xunyang,china,CN,32.8341,109.3653
taraz,kazakhstan,KZ,42.9,71.3667
cubal,angola,AO,-13.0333,14.25
anda,china,CN,46.424,125.352
luena,angola,AO,-11.7918,19.9062
karnāl,india,IN,29.686,76.989
gonaïves,haiti,HT,19.4456,-72.6883
vinnytsia,ukraine,UA,49.2333,28.4833
minatitlán,mexico,MX,17.9833,-94.55
linxia chengguanzhen,china,CN,35.6047,103.2422
brahmapur,india,IN,19.315,84.7941
modesto,united states,US,37.6375,-121.0028
caucaia,brazil,BR,-3.7328,-38.6558
cabuyao,philippines,PH,14.275,121.125
gedaref,sudan,SD,14.0333,35.3833
san fernando,philippines,PH,15.03,120.68
kawagoe,japan,JP,35.9251,139.4858
pokhara,nepal,NP,28.2097,83.9853
nice,france,FR,43.7034,7.2663
villahermosa,mexico,MX,17.9892,-92.9281
wakayama,japan,JP,34.2333,135.1667
mahilyow,belarus,BY,53.9167,30.35
osh,kyrgyzstan,KG,40.5333,72.7833
kita-ku,japan,JP,35.75,139.7333
gimpo,"korea, south",KR,37.7,126.6
corrientes,argentina,AR,-27.4833,-58.8167
thari mir wah,pakistan,PK,27.0683,68.6023
nara,japan,JP,34.6844,135.805
vladimir,russia,RU,56.1286,40.4058
sinŭiju,"korea, north",KP,40.1,124.4
oruro,bolivia,BO,-17.9667,-67.1167
arkhangelsk,russia,RU,64.5431,40.5375
batangas,philippines,PH,13.83,121.0
ahmadnagar,india,IN,19.08,74.73
varna,bulgaria,BG,43.2114,27.9111
tarsus,turkey,TR,36.9165,34.8951
sarıyer,turkey,TR,41.1669,29.0572
semey,kazakhstan,KZ,50.4333,80.2667
holguín,cuba,CU,20.8872,-76.2631
tungi,bangladesh,BD,23.8915,90.4023
godē,ethiopia,ET,5.9527,43.5516
sawrān,iraq,IQ,36.6532,44.5441
an nhơn,vietnam,VN,13.917,109.083
olinda,brazil,BR,-8.0089,-34.855
praia grande,brazil,BR,-24.0058,-46.4028
shinjuku,japan,JP,35.7014,139.7097
antofagasta,chile,CL,-23.65,-70.4
meram,turkey,TR,37.8364,32.4383
cascavel,brazil,BR,-24.9558,-53.4553
pamukkale,turkey,TR,37.9167,29.1167
canoas,brazil,BR,-29.92,-51.18
takatsuki,japan,JP,34.8461,135.6175
yidu,china,CN,30.378,111.45
antónio enes,mozambique,MZ,-16.2308,39.9105
plovdiv,bulgaria,BG,42.1434,24.751
central coast,australia,AU,-33.3,151.2
honolulu,united states,US,21.3294,-157.846
karşıyaka,turkey,TR,38.4594,27.1153
shāhjānpur,india,IN,27.88,79.91
gwagwalada,nigeria,NG,8.9392,7.0758
āvadi,india,IN,13.1147,80.1098
tanch’ŏn,"korea, north",KP,40.458,128.911
greensboro,united states,US,36.0956,-79.8271
khānāpur,india,IN,15.6394,74.5083
wad medani,sudan,SD,14.4,33.51
fort wayne,united states,US,41.0888,-85.1436
kūstī,sudan,SD,13.17,32.66
belfast,united kingdom,GB,54.5967,-5.93
cuddapah,india,IN,14.47,78.82
nakano,japan,JP,35.7074,139.6638
yong’an,china,CN,25.942,117.365
alamādi,india,IN,13.1097,80.0972
carapicuíba,brazil,BR,-23.5228,-46.8358
anaheim,united states,US,33.839,-117.8574
brest,belarus,BY,52.1347,23.6569
ōtsu,japan,JP,35.0167,135.85
maseru,lesotho,LS,-29.31,27.48
pavlodar,kazakhstan,KZ,52.3,76.95
chon buri,thailand,TH,13.3611,100.985
naga city,philippines,PH,13.6244,123.1864
vahdat,tajikistan,TJ,38.5531,69.0206
florianópolis,brazil,BR,-27.5933,-48.553
paulista,brazil,BR,-7.9408,-34.8728
sfax,tunisia,TN,34.74,10.76
rājahmundry,india,IN,16.98,81.78
koshigaya,japan,JP,35.8911,139.7909
hongjiang,china,CN,27.191,109.819
yeşilyurt,turkey,TR,38.2961,38.2489
vũng tàu,vietnam,VN,10.3833,107.1167
jeonju,"korea, south",KR,35.8167,127.15
alwar,india,IN,27.5498,76.6355
huadian,china,CN,42.972,126.746
tokorozawa,japan,JP,35.7996,139.4686
sumqayıt,azerbaijan,AZ,40.5961,49.67
vitória da conquista,brazil,BR,-14.8661,-40.8394
yamoussoukro,côte d’ivoire,CI,6.8161,-5.2742
buôn ma thuột,vietnam,VN,12.6667,108.05
corpus christi,united states,US,27.7254,-97.3767
fort collins,united states,US,40.5477,-105.0656
mishan,china,CN,45.5298,131.8466
makiivka,ukraine,UA,48.0556,37.9611
islip,united states,US,40.7385,-73.1888
cuernavaca,mexico,MX,18.9186,-99.2342
markham,canada,CA,43.8767,-79.2633
bielefeld,germany,DE,52.0211,8.5347
bydgoszcz,poland,PL,53.1219,18.0003
chinju,"korea, south",KR,35.2,128.0833
reading,united kingdom,GB,51.4542,-0.9731
randburg,south africa,ZA,-26.0936,28.0064
iwaki,japan,JP,37.0505,140.8877
oshawa,canada,CA,43.9,-78.85
bonn,germany,DE,50.7353,7.1022
sambalpur,india,IN,21.47,83.97
santo domingo de los colorados,ecuador,EC,-0.2542,-79.1719
uruapan,mexico,MX,19.4208,-102.0628
lublin,poland,PL,51.25,22.5667
porto velho,brazil,BR,-8.7619,-63.9039
licheng,china,CN,24.5,110.4
huichang,china,CN,34.9073,112.7914
tampere,finland,FI,61.4981,23.76
antioch,united states,US,37.9787,-121.796
muzaffarpur,india,IN,26.1225,85.3906
chita,russia,RU,52.05,113.4667
viña del mar,chile,CL,-33.0244,-71.5517
khipro,pakistan,PK,25.823,69.377
asan,"korea, south",KR,36.7836,127.0042
nukus,uzbekistan,UZ,42.4667,59.6
chak jhumra,pakistan,PK,31.5667,73.1833
simferopol,ukraine,UA,44.9519,34.1022
konak,turkey,TR,38.4189,27.1285
soledad de graciano sánchez,mexico,MX,22.1833,-100.9333
şalālah,oman,OM,17.0197,54.0897
santarém,brazil,BR,-2.4431,-54.7083
yanbu‘,saudi arabia,SA,24.0523,38.1503
maebashi,japan,JP,36.3895,139.0634
kaluga,russia,RU,54.55,36.2833
gəncə,azerbaijan,AZ,40.6828,46.3606
asahikawa,japan,JP,43.7667,142.3667
jackson,united states,US,32.3157,-90.2125
kendari,indonesia,ID,-3.9907,122.5086
wŏnju,"korea, south",KR,37.3417,127.9208
birkat as sab‘,egypt,EG,30.6291,31.0824
lafia,nigeria,NG,8.4917,8.5167
dahūk,iraq,IQ,36.85,42.9833
nizhniy tagil,russia,RU,57.9167,59.9667
finglas,ireland,IE,53.3892,-6.2969
kāmārhāti,india,IN,22.6686,88.3704
nicosia,cyprus,CY,35.1725,33.365
lengshuijiang,china,CN,27.686,111.436
ribeirão das neves,brazil,BR,-19.7669,-44.0869
guédiawaye,senegal,SN,14.7724,-17.3884
ciudad obregón,mexico,MX,27.4939,-109.9389
campīernagar,india,IN,27.029,83.2668
phatthaya,thailand,TH,12.9357,100.889
minzhu,china,CN,43.7238,127.3448
belgorod,russia,RU,50.6,36.6
gómez palacio,mexico,MX,25.5611,-103.4983
bijāpur,india,IN,16.83,75.71
cabanatuan city,philippines,PH,15.4908,120.9678
si racha,thailand,TH,13.174,100.93
salamanca,mexico,MX,20.5703,-101.1972
ratnāgiri,india,IN,16.9944,73.3
ulanhot,china,CN,46.0722,122.0933
chipata,zambia,ZM,-13.6453,32.6464
koriyama,japan,JP,37.4004,140.3597
yunzhong,china,CN,39.8279,113.1
fayetteville,united states,US,35.085,-78.9772
arnavutköy,turkey,TR,41.1856,28.7406
küçükçekmece,turkey,TR,41.0,28.8
roodepoort,south africa,ZA,-26.1625,27.8725
pucallpa,peru,PE,-8.3833,-74.55
san pedro,philippines,PH,14.3583,121.0583
myrtle beach,united states,US,33.7094,-78.8844
kōchi,japan,JP,33.5589,133.5314
jagdalpur,india,IN,19.18,81.92
rāmpur,india,IN,28.8,79.0
kuching,malaysia,MY,1.53,110.33
cotabato,philippines,PH,7.22,124.25
nantes,france,FR,47.2181,-1.5528
henderson,united states,US,36.0133,-115.0381
cariacica,brazil,BR,-20.2639,-40.42
mobile,united states,US,30.6782,-88.1162
nazrēt,ethiopia,ET,8.5414,39.2689
safi,morocco,MA,32.2833,-9.2333
kikuyu,kenya,KE,-1.2463,36.6629
córdoba,spain,ES,37.89,-4.78
kluang,malaysia,MY,2.0383,103.3179
mekele,ethiopia,ET,13.4969,39.4769
pelotas,brazil,BR,-31.7719,-52.3428
vaughan,canada,CA,43.8333,-79.5
kaiyuan,china,CN,23.7111,103.2461
tangdong,china,CN,25.973,113.231
münster,germany,DE,51.9625,7.6256
vitória,brazil,BR,-20.3106,-40.2972
shimoga,india,IN,13.9333,75.5667
uíge,angola,AO,-7.6167,15.05
hotan,china,CN,37.1167,79.9167
minna,nigeria,NG,9.6139,6.5569
ning’an,china,CN,44.341,129.483
camagüey,cuba,CU,21.3786,-77.9186
taourirt,morocco,MA,34.4169,-2.885
san salvador de jujuy,argentina,AR,-24.1833,-65.3
kāshīpur,india,IN,29.22,78.95
thủ dầu một,vietnam,VN,10.9667,106.65
serra,brazil,BR,-20.1289,-40.3078
lexington,united states,US,38.0423,-84.4587
la paz,bolivia,BO,-16.4958,-68.1333
sukabumi,indonesia,ID,-6.9181,106.9315
menongue,angola,AO,-14.6556,17.6842
okene,nigeria,NG,7.5619,6.2411
jūnāgadh,india,IN,21.5222,70.4579
guasavito,mexico,MX,25.5744,-108.4706
kaech’ŏn,"korea, north",KP,39.6986,125.9061
tehuacán,mexico,MX,18.4617,-97.3928
coatzacoalcos,mexico,MX,18.1414,-94.4344
saint-denis,reunion,RE,-20.8789,55.4481
muhanga,rwanda,RW,-2.0845,29.7527
zalantun,china,CN,48.027,122.708
hafizabad,pakistan,PK,32.0714,73.6878
katsina,nigeria,NG,12.25,7.5
puerto plata,dominican republic,DO,19.8,-70.6833
gwangmyeongni,"korea, south",KR,37.476,126.866
lansing,united states,US,42.7142,-84.5601
taubaté,brazil,BR,-23.0333,-45.55
zhengjiatun,china,CN,43.5183,123.5027
port moresby,papua new guinea,PG,-9.4789,147.1494
fontibón,colombia,CO,4.6786,-74.1411
hāpur,india,IN,28.7309,77.7757
mannheim,germany,DE,49.4878,8.4661
barueri,brazil,BR,-23.5111,-46.8764
savannah,united states,US,32.0286,-81.1821
naha,japan,JP,26.2122,127.6792
bari,italy,IT,41.1253,16.8667
pattikād,india,IN,10.5276,76.2144
xiaoli,china,CN,22.6721,113.2509
youngstown,united states,US,41.0993,-80.6463
trichūr,india,IN,10.5276,76.2144
yingzhong,china,CN,32.237,119.815
bor,south sudan,SS,6.2072,31.5591
volzhskiy,russia,RU,48.8056,44.7417
san miguelito,panama,PA,9.0503,-79.4707
n’zérékoré,guinea,GN,7.7522,-8.8217
balıkesir,turkey,TR,39.6333,27.8833
espoo,finland,FI,60.2056,24.6556
muar,malaysia,MY,2.0337,102.5666
ann arbor,united states,US,42.2759,-83.731
kasur,pakistan,PK,31.1167,74.45
usme,colombia,CO,4.4464,-74.1522
barddhamān,india,IN,23.2333,87.8667
sousse,tunisia,TN,35.8333,10.6333
kingston upon hull,united kingdom,GB,53.7444,-0.3325
binangonan,philippines,PH,14.4514,121.1919
attiecoubé,côte d’ivoire,CI,5.3453,-4.035
podolsk,russia,RU,55.4311,37.5456
smolensk,russia,RU,54.7828,32.0453
jiayuguan,china,CN,39.7732,98.2882
pasir gudang,malaysia,MY,1.462,103.9053
vologda,russia,RU,59.2167,39.9
gorgān,iran,IR,36.8369,54.4372
tanza,philippines,PH,14.3944,120.8531
yakutsk,russia,RU,62.03,129.73
santa ana,united states,US,33.7367,-117.8819
catania,italy,IT,37.5027,15.0873
panvel,india,IN,18.9944,73.1139
guarujá,brazil,BR,-23.9936,-46.2564
nizāmābād,india,IN,18.672,78.094
quy nhơn,vietnam,VN,13.7667,109.2333
kurgan,russia,RU,55.4667,65.35
saransk,russia,RU,54.1833,45.1833
ḩā’il,saudi arabia,SA,27.5167,41.6833
datang,china,CN,22.9406,113.9436
longquan,china,CN,25.9106,114.786
mitchells plain,south africa,ZA,-34.0506,18.6181
yokkaichi,japan,JP,34.965,136.6244
chalco,mexico,MX,19.2647,-98.8975
karlsruhe,germany,DE,49.0092,8.404
shahrīār,iran,IR,35.6531,51.06
shahr-e qods,iran,IR,35.7103,51.1131
ciudad del este,paraguay,PY,-25.5167,-54.6161
tabora,tanzania,TZ,-5.0167,32.8
ciudad benito juárez,mexico,MX,25.65,-100.0833
beian,china,CN,48.25,126.5167
irvine,united states,US,33.6772,-117.7738
hisor,tajikistan,TJ,38.5264,68.5381
nakuru,kenya,KE,-0.2833,36.0667
karawang,indonesia,ID,-6.3125,107.295
sariwŏn,"korea, north",KP,38.5064,125.7597
st. paul,united states,US,44.9478,-93.1039
poughkeepsie,united states,US,41.695,-73.9211
battalgazi,turkey,TR,38.4228,38.3656
nghi sơn,vietnam,VN,19.417,105.75
guangming,china,CN,45.3333,122.7833
newark,united states,US,40.7245,-74.1725
parbhani,india,IN,19.27,76.78
montpellier,france,FR,43.6119,3.8772
puerto princesa,philippines,PH,9.75,118.75
hisar,india,IN,29.15,75.7
montes claros,brazil,BR,-16.7322,-43.8636
betim,brazil,BR,-19.9678,-44.1978
windsor,canada,CA,42.2833,-83.0
kasugai,japan,JP,35.2475,136.9722
ciudad santa catarina,mexico,MX,25.6833,-100.45
fatehpur,india,IN,27.98,74.95
birania,india,IN,27.98,74.95
ciudad victoria,mexico,MX,23.7389,-99.1431
kaunas,lithuania,LT,54.9,23.9333
playa del carmen,mexico,MX,20.6281,-87.0755
yonghetun,china,CN,39.9131,116.6458
kāshān,iran,IR,33.9825,51.4325
la peña,mexico,MX,19.3606,-98.9417
sumbawanga,tanzania,TZ,-7.9667,31.6167
vila nova de gaia,portugal,PT,41.1333,-8.6167
orël,russia,RU,52.9686,36.0694
vladikavkaz,russia,RU,43.04,44.6775
são vicente,brazil,BR,-23.9664,-46.3861
kāraikkudi,india,IN,10.0735,78.7732
augsburg,germany,DE,48.3689,10.8978
panjakent,tajikistan,TJ,39.5,67.6167
akita,japan,JP,39.72,140.1026
lachhmangarh sīkar,india,IN,27.8225,75.0253
kurume,japan,JP,33.3192,130.5083
az zaqāzīq,egypt,EG,30.5667,31.5
palmas,brazil,BR,-10.1886,-48.3336
bahía blanca,argentina,AR,-38.7167,-62.2667
al waqf,egypt,EG,26.0866,32.4226
san bernardo,chile,CL,-33.5833,-70.7
san juan del río,mexico,MX,20.3833,-99.9833
armenia,colombia,CO,4.53,-75.68
qianzhou,china,CN,28.276,109.712
popayán,colombia,CO,2.4542,-76.6092
valladolid,spain,ES,41.6528,-4.7236
al qunfudhah,saudi arabia,SA,19.1264,41.0789
çorlu,turkey,TR,41.15,27.8
binxian,china,CN,35.0542,108.0814
yakou,china,CN,33.295,113.5269
newcastle,united kingdom,GB,54.978,-1.6102
oulgaret,india,IN,11.9265,79.7789
āwasa,ethiopia,ET,7.05,38.4667
ingrāj bāzār,india,IN,25.0119,88.1433
várzea grande,brazil,BR,-15.6469,-56.1328
oaxaca,mexico,MX,17.0606,-96.7253
bada barabīl,india,IN,22.12,85.4
jinja,uganda,UG,0.4233,33.2039
khairpur tamewah,pakistan,PK,29.58,72.2328
ash shāmīyah,iraq,IQ,31.9625,44.6008
sucre,bolivia,BO,-19.0475,-65.26
al maţarīyah,egypt,EG,31.1833,32.0333
al ‘ajamī,egypt,EG,31.1227,29.7838
barrancabermeja,colombia,CO,7.0667,-73.85
santa rosa,united states,US,38.4458,-122.7067
ar raqqah,syria,SY,35.9304,39.02
chakwal,pakistan,PK,32.9303,72.8556
ōakashichō,japan,JP,34.65,135.0
oyster bay,united states,US,40.7846,-73.514
farg‘ona,uzbekistan,UZ,40.3864,71.7864
tursunzoda,tajikistan,TJ,38.5108,68.2303
cherepovets,russia,RU,59.1167,37.9
resistencia,argentina,AR,-27.4514,-58.9867
jember,indonesia,ID,-8.1727,113.6873
al mubarraz,saudi arabia,SA,25.4416,49.6642
pekalongan,indonesia,ID,-6.8833,109.6667
los mochis,mexico,MX,25.7835,-108.9937
toshima,japan,JP,35.7333,139.7167
pachuca,mexico,MX,20.1,-98.75
yangsan,"korea, south",KR,35.3333,129.0333
concord,united states,US,35.3933,-80.6369
tampico,mexico,MX,22.2553,-97.8686
bihār,india,IN,25.197,85.518
temara,morocco,MA,33.9267,-6.9122
malabo,equatorial guinea,GQ,3.7456,8.7744
winter haven,united states,US,28.0118,-81.7014
valparaíso,chile,CL,-33.0461,-71.6197
cirebon,indonesia,ID,-6.7071,108.5574
tagum,philippines,PH,7.4478,125.8078
çekme,turkey,TR,41.0369,29.1786
darbhanga,india,IN,26.17,85.9
comilla,bangladesh,BD,23.45,91.2
idar,india,IN,23.839,73.002
pondokaren,indonesia,ID,-6.2811,106.7019
sorong,indonesia,ID,-0.8667,131.25
shubrākhīt,egypt,EG,31.0279,30.7149
floridablanca,colombia,CO,7.2167,-73.0667
silang,philippines,PH,14.2306,120.975
al kharj,saudi arabia,SA,24.1483,47.305
rufisque,senegal,SN,14.714,-17.2723
eloy alfaro,ecuador,EC,-2.1733,-79.8311
asheville,united states,US,35.5707,-82.5537
sikandarābād,india,IN,28.4512,77.6955
stockport,united kingdom,GB,53.4083,-2.1494
kafr şaqr,egypt,EG,30.7934,31.6257
divo,côte d’ivoire,CI,5.8372,-5.3572
vila teixeira da silva,angola,AO,-12.1958,15.8556
i̇negöl,turkey,TR,40.0806,29.5097
paarl,south africa,ZA,-33.7242,18.9558
rangpur,bangladesh,BD,25.75,89.2444
białystok,poland,PL,53.1353,23.1456
vigo,spain,ES,42.2314,-8.7124
trabzon,turkey,TR,41.005,39.7225
canton,united states,US,40.8078,-81.3676
coacalco,mexico,MX,19.6333,-99.0931
āīzawl,india,IN,23.7272,92.7178
bāli,india,IN,22.65,88.34
bradford,united kingdom,GB,53.8,-1.75
mabalacat,philippines,PH,15.22,120.58
dexing,china,CN,28.9306,117.5947
lincoln,united states,US,40.8099,-96.6784
hailin,china,CN,44.594,129.38
graz,austria,AT,47.0708,15.4386
strasbourg,france,FR,48.5833,7.7458
flint,united states,US,43.0236,-83.6921
groznyy,russia,RU,43.3125,45.6986
mahikeng,south africa,ZA,-25.8656,25.6436
chimbote,peru,PE,-9.0745,-78.5936
bergen,norway,NO,60.3925,5.3233
gatineau,canada,CA,45.4833,-75.65
surajgarha,india,IN,25.25,86.23
lakeland,united states,US,28.0557,-81.9545
batna,algeria,DZ,35.55,6.1667
san miguel,el salvador,SV,13.4814,-88.1775
aarhus,denmark,DK,56.1572,10.2107
morioka,japan,JP,39.7021,141.1545
hong’an,china,CN,47.21,123.61
nāgercoil,india,IN,8.175,77.4306
santa maria,philippines,PH,14.82,120.96
tambov,russia,RU,52.7231,41.4539
jersey city,united states,US,40.7184,-74.0686
dewās,india,IN,22.96,76.06
eldoret,kenya,KE,0.5167,35.2833
nottingham,united kingdom,GB,52.9561,-1.1512
magway,burma,MM,20.15,94.95
anchorage,united states,US,61.1508,-149.1091
springfield,united states,US,37.1943,-93.2916
neuquén,argentina,AR,-38.9525,-68.0642
tuzla,turkey,TR,40.8161,29.3006
kabwe,zambia,ZM,-14.4333,28.45
cabimas,venezuela,VE,10.4,-71.45
sétif,algeria,DZ,36.19,5.41
sonpur,india,IN,25.7,85.18
hugli,india,IN,22.9,88.39
chunchura,india,IN,22.9,88.39
meguro,japan,JP,35.6333,139.6833
anápolis,brazil,BR,-16.3269,-48.9528
machala,ecuador,EC,-3.2667,-79.9667
san lorenzo,paraguay,PY,-25.34,-57.52
franca,brazil,BR,-20.5389,-47.4008
bắc ninh,vietnam,VN,21.1833,106.05
ichalkaranji,india,IN,16.7,74.47
tirupati,india,IN,13.65,79.42
plano,united states,US,33.0502,-96.7486
pathein,burma,MM,16.7842,94.7333
sincelejo,colombia,CO,9.295,-75.3961
cluj-napoca,romania,RO,46.7667,23.5833
songea,tanzania,TZ,-10.6833,35.65
tacna,peru,PE,-18.0147,-70.2489
tin shui wai,hong kong,HK,22.46,114.002
juazeiro do norte,brazil,BR,-7.2128,-39.315
al qurnah,iraq,IQ,31.0155,47.4336
bhatinda,india,IN,30.23,74.9519
katowice,poland,PL,50.2625,19.0217
wiesbaden,germany,DE,50.0825,8.24
masaka,uganda,UG,-0.3411,31.7361
foz do iguaçu,brazil,BR,-25.54,-54.5875
bolton,united kingdom,GB,53.5783,-2.43
san pablo,philippines,PH,14.07,121.325
huixquilucan,mexico,MX,19.3611,-99.3508
qillīn,egypt,EG,31.0475,30.8549
croix-des-bouquets,haiti,HT,18.5761,-72.2269
san juan sacatepéquez,guatemala,GT,14.7189,-90.6442
ostrava,czechia,CZ,49.8356,18.2925
soyapango,el salvador,SV,13.7333,-89.15
ljubljana,slovenia,SI,46.0514,14.5061
fukushima,japan,JP,37.7608,140.4747
bago,burma,MM,17.3333,96.4833
delmas,haiti,HT,18.55,-72.3
fuquan,china,CN,26.6863,107.5204
ibaraki,japan,JP,34.8164,135.5686
nizhnevartovsk,russia,RU,60.95,76.6
lubbock,united states,US,33.5657,-101.8879
satna,india,IN,24.6005,80.8322
san cristóbal,venezuela,VE,7.7667,-72.2333
chernihiv,ukraine,UA,51.4939,31.2947
güngören,turkey,TR,41.0225,28.8717
temuco,chile,CL,-38.7333,-72.6667
ica,peru,PE,-14.0667,-75.7333
davenport,united states,US,41.5565,-90.6053
phitsanulok,thailand,TH,16.8158,100.2636
khanewal,pakistan,PK,30.3,71.9333
jining,china,CN,41.03,113.08
chuncheon,"korea, south",KR,37.8667,127.7333
sakarya,turkey,TR,40.7833,30.4
kaura namoda,nigeria,NG,12.6,6.5897
malārd,iran,IR,35.6806,50.9783
bukhara,uzbekistan,UZ,39.7667,64.4231
reading,united states,US,40.34,-75.9267
marot,pakistan,PK,28.51,71.5
sumbe,angola,AO,-11.2053,13.8417
mingaora,pakistan,PK,34.7717,72.36
caála,angola,AO,-12.85,15.55
poltava,ukraine,UA,49.5894,34.5514
petrozavodsk,russia,RU,61.7833,34.3333
kherson,ukraine,UA,46.6425,32.625
lucena,philippines,PH,13.93,121.62
petrópolis,brazil,BR,-22.505,-43.1789
mamuju,indonesia,ID,-2.6833,118.9
mau,india,IN,25.9417,83.5611
long xuyên,vietnam,VN,10.3736,105.4458
gyeongsan,"korea, south",KR,35.8167,128.7333
bārāsat,india,IN,22.72,88.48
qarshi,uzbekistan,UZ,38.8667,65.8
shreveport,united states,US,32.4653,-93.7955
chandler,united states,US,33.2825,-111.8514
pematangsiantar,indonesia,ID,2.96,99.06
sunderland,united kingdom,GB,54.906,-1.381
sterlitamak,russia,RU,53.6333,55.95
santa ana,el salvador,SV,13.995,-89.5561
büyükçekmece,turkey,TR,41.02,28.5775
gagnoa,côte d’ivoire,CI,6.1333,-5.9333
xingsha,china,CN,28.2573,113.1234
dire dawa,ethiopia,ET,9.6,41.8667
lashkar gāh,afghanistan,AF,31.5831,64.3692
itagüí,colombia,CO,6.1667,-75.6167
juliaca,peru,PE,-15.4833,-70.1333
posadas,argentina,AR,-27.3667,-55.9
tegal,indonesia,ID,-6.8675,109.1375
farrukhābād,india,IN,27.39,79.581
south bend,united states,US,41.6767,-86.2696
mytishchi,russia,RU,55.9167,37.7667
kunsan,"korea, south",KR,35.9833,126.7167
wilmington,united states,US,34.2099,-77.8866
chula vista,united states,US,32.6281,-117.0144
yoshkar-ola,russia,RU,56.65,47.8833
saugor,india,IN,23.83,78.71
khmelnytskyi,ukraine,UA,49.4167,27.0
khorabar,india,IN,26.741,83.888
nassau,"bahamas, the",BS,25.0442,-77.3503
rockford,united states,US,42.2596,-89.064
isfara,tajikistan,TJ,40.1167,70.6333
ratlām,india,IN,23.334,75.037
mehrabpur,pakistan,PK,27.0994,68.4208
yeosu,"korea, south",KR,34.7607,127.6622
shaowu,china,CN,27.3403,117.4925
ponta grossa,brazil,BR,-25.095,-50.1619
taboão da serra,brazil,BR,-23.6019,-46.7528
istaravshan,tajikistan,TJ,39.9108,69.0064
san mateo,philippines,PH,14.6969,121.1219
tsu,japan,JP,34.7331,136.5133
imperatriz,brazil,BR,-5.5258,-47.4758
huozhou,china,CN,36.569,111.7551
los alcarrizos,dominican republic,DO,18.5167,-70.0167
soubré,côte d’ivoire,CI,5.7836,-6.5939
eugene,united states,US,44.0564,-123.1174
marāgheh,iran,IR,37.3894,46.2378
majene,indonesia,ID,-3.5403,118.9707
huilong,china,CN,30.3866,106.7756
salem,united states,US,44.9233,-123.0244
sumida,japan,JP,35.7,139.8167
gabela,angola,AO,-10.85,14.3667
dayr az zawr,syria,SY,35.3304,40.13
iaşi,romania,RO,47.1622,27.5889
sartā,iran,IR,36.4486,53.3233
gilbert,united states,US,33.31,-111.7463
da’an,china,CN,45.5,124.2833
north las vegas,united states,US,36.2883,-115.0888
iksan,"korea, south",KR,35.9439,126.9544
mỹ tho,vietnam,VN,10.35,106.35
nguru,nigeria,NG,12.8792,10.4525
mito,japan,JP,36.3658,140.4712
kunp’o,"korea, south",KR,37.35,126.95
bijiao,china,CN,22.9253,113.2067
cherkasy,ukraine,UA,49.4444,32.0597
bayat,turkey,TR,40.5455,34.957
çorum,turkey,TR,40.5455,34.957
handwāra,india,IN,34.3997,74.2817
binjai,indonesia,ID,3.5986,98.4803
mönchengladbach,germany,DE,51.2,6.4333
kunduz,afghanistan,AF,36.7286,68.8681
paraná,argentina,AR,-31.7331,-60.5297
yeosu,"korea, south",KR,34.7333,127.7333
drug,india,IN,21.19,81.28
turbat,pakistan,PK,26.0042,63.0606
gijón,spain,ES,43.5333,-5.7
brāhmanbāria,bangladesh,BD,23.9723,91.1099
thái bình,vietnam,VN,20.4461,106.3422
ichihara,japan,JP,35.4981,140.1154
tarija,bolivia,BO,-21.5333,-64.7333
shibīn al kawm,egypt,EG,30.55,31.0
siverek,turkey,TR,37.75,39.3167
plymouth,united kingdom,GB,50.3714,-4.1422
aswān,egypt,EG,24.0889,32.8997
potosí,bolivia,BO,-19.5892,-65.7533
hulin,china,CN,45.7667,132.9333
kostroma,russia,RU,57.7681,40.9269
murmansk,russia,RU,68.9706,33.075
maradi,niger,NE,13.501,7.1036
xiangkhoang,laos,LA,19.4167,103.5
anantapur,india,IN,14.68,77.599
kızıltepe,turkey,TR,37.1939,40.5861
adıyaman,turkey,TR,37.7639,38.2778
east london,south africa,ZA,-33.0175,27.9047
saskatoon,canada,CA,52.1333,-106.6833
sumaré,brazil,BR,-22.8219,-47.2669
gelsenkirchen,germany,DE,51.5167,7.1
nagaoka,japan,JP,37.4462,138.8512
khwazakhela,pakistan,PK,34.9333,72.4667
santa clarita,united states,US,34.4175,-118.4964
suncheon,"korea, south",KR,34.9506,127.4875
kibaha,tanzania,TZ,-6.7667,38.9167
nalchik,russia,RU,43.4833,43.6167
gent,belgium,BE,51.0536,3.7253
karaköprü,turkey,TR,37.1847,38.7908
antsirabe,madagascar,MG,-19.8667,47.0333
feni,bangladesh,BD,23.015,91.3967
imphāl,india,IN,24.8074,93.9384
taunggyi,burma,MM,20.7836,97.0354
nogales,mexico,MX,31.3,-110.9333
ed daein,sudan,SD,11.4672,26.1317
dezfūl,iran,IR,32.3786,48.4144
mossoró,brazil,BR,-5.1878,-37.3439
milton keynes,united kingdom,GB,52.04,-0.76
chernivtsi,ukraine,UA,48.3,25.9333
dumai,indonesia,ID,1.6667,101.45
itajaí,brazil,BR,-26.9078,-48.6619
kütahya,turkey,TR,39.4167,29.9833
constanţa,romania,RO,44.1667,28.6333
luque,paraguay,PY,-25.2672,-57.4853
yao,japan,JP,34.6269,135.601
jalālābād,afghanistan,AF,34.4342,70.4478
chiayi,taiwan,TW,23.48,120.4497
nawabshah,pakistan,PK,26.2442,68.41
talisay,philippines,PH,10.25,123.83
tchibota,congo (brazzaville),CG,-4.1794,11.3731
matala,angola,AO,-14.7306,15.0367
peoria,united states,US,40.752,-89.6154
quilmes,argentina,AR,-34.7167,-58.2667
novorossiysk,russia,RU,44.7167,37.7833
wollongong,australia,AU,-34.4331,150.8831
zhytomyr,ukraine,UA,50.25,28.6667
fukui,japan,JP,36.0641,136.2196
arrah,india,IN,25.5514,84.6603
tallahassee,united states,US,30.4551,-84.2527
malolos,philippines,PH,14.8436,120.8114
heroica nogales,mexico,MX,31.3186,-110.9458
killeen,united states,US,31.0753,-97.7297
bariadi,tanzania,TZ,-2.7919,33.9894
hong,nigeria,NG,10.2317,12.9303
santa teresa del tuy,venezuela,VE,10.2333,-66.6639
st. petersburg,united states,US,27.7931,-82.6652
fuchū,japan,JP,35.6689,139.4776
minato,japan,JP,35.6581,139.7514
novi sad,serbia,RS,45.2542,19.8425
boksburg,south africa,ZA,-26.2125,28.2625
olongapo,philippines,PH,14.83,120.28
quảng ngãi,vietnam,VN,15.1167,108.8
engels,russia,RU,51.5017,46.1222
kennewick,united states,US,46.1978,-119.1732
sivakāsi,india,IN,9.4533,77.8024
skardu,pakistan,PK,35.2903,75.6444
al ḩamzah,iraq,IQ,31.7244,44.9769
qo‘qon,uzbekistan,UZ,40.5286,70.9425
kotri,pakistan,PK,25.374,68.3013
mişrātah,libya,LY,32.3775,15.092
aydın,turkey,TR,37.8481,27.8453
singa,sudan,SD,13.1483,33.9311
tāluqān,afghanistan,AF,36.7167,69.5167
manta,ecuador,EC,-0.95,-80.7162
ndulo,angola,AO,-11.4833,15.8333
andulo,angola,AO,-11.4926,16.7035
vitoria-gasteiz,spain,ES,42.85,-2.6833
hiratsuka,japan,JP,35.3167,139.35
columbus,united states,US,32.51,-84.8771
rāniyah,iraq,IQ,36.255,44.8822
annaba,algeria,DZ,36.9,7.7667
etāwah,india,IN,26.77,79.03
siddhirganj,bangladesh,BD,23.6913,90.5149
khimki,russia,RU,55.8892,37.445
chingola,zambia,ZM,-12.5333,27.85
sumy,ukraine,UA,50.9119,34.8028
yakeshi,china,CN,49.286,120.712
indaiatuba,brazil,BR,-23.0903,-47.2181
bloemfontein,south africa,ZA,-29.1167,26.2167
laredo,united states,US,27.5625,-99.4874
malkājgiri,india,IN,17.4519,78.5362
germiston,south africa,ZA,-26.2178,28.1672
verona,italy,IT,45.4386,10.9928
kakogawachō-honmachi,japan,JP,34.75,134.8333
derby,united kingdom,GB,52.9247,-1.478
pasarkemis,indonesia,ID,-6.1703,106.53
westminster,united kingdom,GB,51.4947,-0.1353
kuala terengganu,malaysia,MY,5.3304,103.12
irving,united states,US,32.8583,-96.9702
san pedro carchá,guatemala,GT,15.4667,-90.3
moçâmedes,angola,AO,-15.1953,12.1508
tokushima,japan,JP,34.0667,134.55
são carlos,brazil,BR,-22.0178,-47.8908
longueuil,canada,CA,45.5333,-73.5167
marilao,philippines,PH,14.7581,120.9481
tuni,india,IN,17.35,82.55
sodo,ethiopia,ET,6.855,37.7808
ash shaţrah,iraq,IQ,31.4175,46.1772
sab‘ al būr,iraq,IQ,33.4617,44.1557
fort-de-france,martinique,MQ,14.6,-61.0667
mawlamyine,burma,MM,16.4847,97.6258
caruaru,brazil,BR,-8.2828,-35.9758
ţanţā,egypt,EG,30.7833,31.0
amarnāth,india,IN,19.209,73.186
godomè,benin,BJ,6.3667,2.35
rāpar,india,IN,23.57,70.63
samāstipur,india,IN,25.8629,85.7811
gokāk,india,IN,16.1667,74.8333
manavgat,turkey,TR,36.7833,31.4333
shinozaki,japan,JP,33.9578,130.9414
aachen,germany,DE,50.7756,6.0836
parnamirim,brazil,BR,-5.9158,-35.2628
jhenida,bangladesh,BD,23.5425,89.1749
cimanggis,indonesia,ID,-6.3645,106.8591
bharatpur,india,IN,27.22,77.48
los teques,venezuela,VE,10.3333,-67.0417
round lake beach,united states,US,42.3791,-88.0811
osmaniye,turkey,TR,37.075,36.25
uberaba,brazil,BR,-19.7478,-47.9319
begusarai,india,IN,25.42,86.13
kediri,indonesia,ID,-7.8111,112.0047
kanggye,"korea, north",KP,40.9667,126.6
hakodate,japan,JP,41.7686,140.7289
tacloban,philippines,PH,11.24,125.0
afyonkarahisar,turkey,TR,38.7578,30.5386
i̇skenderun,turkey,TR,36.5817,36.165
montgomery,united states,US,32.3482,-86.2668
sōka,japan,JP,35.8254,139.8053
nedumana,india,IN,8.9139,76.6889
higüey,dominican republic,DO,18.6181,-68.7111
chesapeake,united states,US,36.6778,-76.3023
wolverhampton,united kingdom,GB,52.5833,-2.1333
pointe-à-pitre,guadeloupe,GP,16.2411,-61.5331
al fallūjah,iraq,IQ,33.35,43.7833
timişoara,romania,RO,45.7597,21.23
bata,equatorial guinea,GQ,1.865,9.77
chemnitz,germany,DE,50.8333,12.9167
rạch giá,vietnam,VN,10.0167,105.0833
companiganj,bangladesh,BD,22.873,91.2782
venice,italy,IT,45.4397,12.3319
bābol,iran,IR,36.5475,52.6783
glendale,united states,US,33.5791,-112.2311
la paz,mexico,MX,24.1422,-110.3108
kalār,iraq,IQ,34.6281,45.3185
türkistan,kazakhstan,KZ,43.3019,68.2692
al bayḑā’,libya,LY,32.7628,21.755
natogyi,burma,MM,21.4167,95.65
kurmuk,sudan,SD,10.5563,34.2848
new delhi,india,IN,28.6139,77.2089
las condes,chile,CL,-33.4117,-70.55
goma,congo (kinshasa),CD,-1.6794,29.2336
rishon leẕiyyon,israel,IL,31.95,34.8
osorno,chile,CL,-40.5725,-73.1353
campeche,mexico,MX,19.85,-90.5306
tiruvottiyūr,india,IN,13.16,80.3
palangkaraya,indonesia,ID,-2.21,113.92
a coruña,spain,ES,43.365,-8.41
burnaby,canada,CA,49.2667,-122.9667
rāmnagar,india,IN,27.17,84.32
limeira,brazil,BR,-22.5647,-47.4017
kiel,germany,DE,54.3233,10.1394
carmen,mexico,MX,18.6431,-91.8306
gāndhīdhām,india,IN,23.08,70.13
banikoara,benin,BJ,11.3,2.4333
salūmbar,india,IN,24.08,74.02
kyŏngju,"korea, south",KR,35.85,129.2167
vantaa,finland,FI,60.2944,25.0403
sibu,malaysia,MY,2.303,111.843
qā’em shahr,iran,IR,36.4636,52.8581
beykoz,turkey,TR,41.1342,29.0922
nashua,united states,US,42.7491,-71.491
sahiwal,pakistan,PK,30.6611,73.1083
isparta,turkey,TR,37.7647,30.5567
navotas,philippines,PH,14.6667,120.9417
santa clara,cuba,CU,22.4067,-79.9531
yamagata,japan,JP,38.2554,140.3396
aksaray,turkey,TR,38.3742,34.0289
governador valadares,brazil,BR,-18.8508,-41.9489
khomeynī shahr,iran,IR,32.6803,51.5361
shijing,china,CN,23.093,113.7965
york,united states,US,39.9651,-76.7315
abertawe,united kingdom,GB,51.6167,-3.95
tsukuba-kenkyūgakuen-toshi,japan,JP,36.0835,140.0764
oruro,bolivia,BO,-17.9799,-67.13
macaé,brazil,BR,-22.3708,-41.7869
győr,hungary,HU,47.6842,17.6344
al ‘āshir min ramaḑān,egypt,EG,30.2964,31.7463
mahajanga,madagascar,MG,-15.67,46.345
mount lavinia,sri lanka,LK,6.8339,79.8644
garland,united states,US,32.91,-96.6304
gdynia,poland,PL,54.5175,18.54
barnsley,united kingdom,GB,53.5547,-1.4791
taiping,malaysia,MY,4.865,100.72
syktyvkar,russia,RU,61.6667,50.8167
stoke-on-trent,united kingdom,GB,53.0255,-2.1761
são josé de ribamar,brazil,BR,-2.5619,-44.0539
rock hill,united states,US,34.9415,-81.0241
puducherry,india,IN,11.9167,79.8167
merlo,argentina,AR,-34.6653,-58.7275
portoviejo,ecuador,EC,-1.0561,-80.4553
damanhūr,egypt,EG,31.05,30.4667
sarajevo,bosnia and herzegovina,BA,43.8564,18.4131
jessore,bangladesh,BD,23.1704,89.2
rivne,ukraine,UA,50.6192,26.2519
kesbewa,sri lanka,LK,6.7914,79.9378
kanpur,india,IN,26.4499,80.3319
fuji,japan,JP,35.1613,138.6763
eindhoven,netherlands,NL,51.4344,5.4842
sabzevār,iran,IR,36.2125,57.6764
santa maria,brazil,BR,-29.6839,-53.8069
bahir dar,ethiopia,ET,11.6,37.3833
wudalianchi,china,CN,48.75,126.1667
elche,spain,ES,38.2669,-0.6983
myitkyina,burma,MM,25.3833,97.4
rāmgundam,india,IN,18.7639,79.475
tuy hòa,vietnam,VN,13.0819,109.295
sasebo,japan,JP,33.18,129.715
sapele,nigeria,NG,5.9,5.6667
birāṭnagar,nepal,NP,26.4833,87.2833
pandharpur,india,IN,17.6778,75.3278
marg‘ilon,uzbekistan,UZ,40.4711,71.7247
qyzylorda,kazakhstan,KZ,44.85,65.5167
st. catharines,canada,CA,43.1833,-79.2333
chigasaki,japan,JP,35.3333,139.4
araraquara,brazil,BR,-21.7939,-48.1758
halle,germany,DE,51.4828,11.9697
scottsdale,united states,US,33.6872,-111.8651
volta redonda,brazil,BR,-22.5231,-44.1042
americana,brazil,BR,-22.7392,-47.3314
zhangping,china,CN,25.2902,117.42
man,côte d’ivoire,CI,7.4004,-7.55
sete lagoas,brazil,BR,-19.4658,-44.2469
bānchpār,bangladesh,BD,23.2081,90.7979
sakākā,saudi arabia,SA,29.9697,40.2
haeju,"korea, north",KP,38.0333,125.7167
taganrog,russia,RU,47.2167,38.9167
hải dương,vietnam,VN,20.9397,106.3306
masaurhi buzurg,india,IN,25.35,85.02
gelemso,ethiopia,ET,8.8167,40.5167
alleppey,india,IN,9.49,76.33
paramaribo,suriname,SR,5.8522,-55.2039
baruta,venezuela,VE,10.4322,-66.8739
marília,brazil,BR,-22.2139,-49.9458
katihār,india,IN,25.53,87.58
tarapoto,peru,PE,-6.4833,-76.3667
nizhnekamsk,russia,RU,55.6333,51.8167
atushi,china,CN,39.7162,76.1684
abī al khaşīb,iraq,IQ,30.4464,47.9781
jacareí,brazil,BR,-23.305,-45.9658
anju,"korea, north",KP,39.62,125.66
magdeburg,germany,DE,52.1317,11.6392
andīmeshk,iran,IR,32.4714,48.3489
bunkyō-ku,japan,JP,35.7167,139.75
blagoveshchensk,russia,RU,50.25,127.5333
horlivka,ukraine,UA,48.3,38.05
ahor,india,IN,25.367,72.783
yato,japan,JP,35.4833,139.45
matsumoto,japan,JP,36.238,137.972
chimoio,mozambique,MZ,-19.1167,33.45
lille,france,FR,50.6278,3.0583
kasulu,tanzania,TZ,-4.58,30.1
ivano-frankivsk,ukraine,UA,48.9228,24.7106
chōfugaoka,japan,JP,35.6506,139.5407
